ROG3,Ctry,PeopleID3,ROP3,PeopNameAcrossCountries,PeopNameInCountry,Population,JPScale,LeastReached,ROL3,PrimaryLanguageName,BibleStatus,RLG3,PrimaryReligion,PercentAdherents,PercentEvangelical,PeopleID1,ROP1,AffinityBloc,PeopleID2,ROP2,PeopleCluster,CountOfCountries,RegionCode,RegionName,ROG2,Continent,10_40Window,IndigenousCode,WorkersNeeded,Frontier,Latitude,Longitude
AF,Afghanistan,14372,107989,"Afghan, Tajik","Afghan, Tajik",11388000,1,Y,prs,Dari,5,6,Islam,0.01,0.01,14,A005,Persian-Median,299,C0211,Tajik,3,5,"Asia, Central",ASI,Asia,Y,Y,228,Y,31.15621,62.14612
AF,Afghanistan,19409,100096,Afshari,Afshari,15000,1,Y,azb,"Azerbaijani, South",5,6,Islam,0.039,0.039,24,A015,Turkic Peoples,126,C0028,Azerbaijani,2,5,"Asia, Central",ASI,Asia,Y,N,1,Y,34.44796,69.28976
AF,Afghanistan,21454,118270,Aimaq,Aimaq,1670000,1,Y,aiq,Aimaq,1,6,Islam,0,0,14,A005,Persian-Median,268,C0179,Persian,5,5,"Asia, Central",ASI,Asia,Y,Y,33,Y,35.00501,63.128594
AF,Afghanistan,15741,110448,"Americans, U.S.","Americans, U.S.",500,5,N,eng,English,5,1,Christianity,84.5,30,18,A009,North American Peoples,109,C0011,Anglo-American,104,5,"Asia, Central",ASI,Asia,Y,N,,N,34.528621,69.168549
AF,Afghanistan,16221,111334,Ansari,Ansari,2500,1,Y,urd,Urdu,5,6,Islam,0,0,21,A012,South Asian Peoples,452,A012,South Asia Muslim - Ansari,6,5,"Asia, Central",ASI,Asia,Y,N,1,Y,34.54777,69.3198
AF,Afghanistan,15202,109734,"Arab, Tajiki","Arab, Tajiki",18000,1,Y,abh,"Arabic, Tajiki Spoken",1,6,Islam,0.2,0.2,10,A001,Arab World,324,C0237,"Arab World, general",2,5,"Asia, Central",ASI,Asia,Y,N,1,N,36.9447,66.80422
AF,Afghanistan,16239,111360,Arora (Hindu traditions),Arora (Hindu traditions),1600,1,Y,skr,Saraiki,3,5,Hinduism,0,0,21,A012,South Asian Peoples,442,A012,South Asia Hindu - other,3,5,"Asia, Central",ASI,Asia,Y,N,1,Y,36.187213,70.980606
AF,Afghanistan,10528,100675,Azerbaijani,Azerbaijani,13000,1,Y,azj,"Azerbaijani, North",5,6,Islam,0,0,24,A015,Turkic Peoples,126,C0028,Azerbaijani,20,5,"Asia, Central",ASI,Asia,Y,N,1,Y,34.4501,69.61334
AF,Afghanistan,15356,110770,"Baloch, Western","Baloch, Western",489000,1,Y,bgn,"Balochi, Western",3,6,Islam,0.009,0.009,21,A012,South Asian Peoples,455,A012,Baloch,4,5,"Asia, Central",ASI,Asia,Y,Y,10,Y,30.24139,63.20176
AF,Afghanistan,19423,115168,Bania (Muslim traditions),Bania (Muslim traditions),6700,1,Y,urd,Urdu,5,6,Islam,0.23,0.2,21,A012,South Asian Peoples,462,A012,South Asia Muslim - other,1,5,"Asia, Central",ASI,Asia,Y,N,1,N,34.375787,69.435276
AF,Afghanistan,16521,111696,Brahmin,Brahmin,3900,1,Y,urd,Urdu,5,5,Hinduism,0,0,21,A012,South Asian Peoples,417,A012,South Asia Forward Caste - Brahmin,6,5,"Asia, Central",ASI,Asia,Y,N,1,Y,34.294237,69.392519
AF,Afghanistan,10959,101653,Brahui,Brahui,338000,1,Y,brh,Brahui,4,6,Islam,0.101,0.1,21,A012,South Asian Peoples,456,A012,Brahui,4,5,"Asia, Central",ASI,Asia,Y,Y,7,N,30.0908,64.73688
AF,Afghanistan,16585,111780,Changgar,Changgar,3200,1,Y,urd,Urdu,5,6,Islam,0,0,21,A012,South Asian Peoples,462,A012,South Asia Muslim - other,3,5,"Asia, Central",ASI,Asia,Y,N,1,Y,34.470761,69.633613
AF,Afghanistan,11510,102467,Darwazi,"Darwazi, Badakhshani",17000,1,Y,prs,Dari,5,6,Islam,0,0,14,A005,Persian-Median,299,C0211,Tajik,1,5,"Asia, Central",ASI,Asia,Y,Y,1,Y,38.05962,70.72609
AF,Afghanistan,19007,114916,Deaf,Deaf,407000,1,Y,afg,Afghan Sign Language,1,6,Islam,0.05,,26,A017,Deaf,328,C0252,Deaf,216,5,"Asia, Central",ASI,Asia,Y,Y,8,Y,34.5325,69.136606
AF,Afghanistan,12741,105087,"Garwi, Kohistani","Garwi, Kohistani",2000,1,Y,gwc,Gawri,3,6,Islam,0,0,21,A012,South Asian Peoples,462,A012,South Asia Muslim - other,1,5,"Asia, Central",ASI,Asia,Y,Y,1,Y,35.01213209,71.44848521
AF,Afghanistan,17549,112971,Gujar (Muslim traditions),Gujar (Muslim traditions),19000,1,Y,gju,Gujari,0,6,Islam,0.029,0.029,21,A012,South Asian Peoples,462,A012,South Asia Muslim - other,3,5,"Asia, Central",ASI,Asia,Y,Y,1,Y,35.24842,71.48793
AF,Afghanistan,12076,103743,Hazara,Hazara,3503000,1,Y,haz,Hazaragi,3,6,Islam,0.029,0.029,14,A005,Persian-Median,268,C0179,Persian,8,5,"Asia, Central",ASI,Asia,Y,Y,70,Y,34.35039,66.94109
AF,Afghanistan,20542,116135,Ishkashimi,Ishkashimi,3300,1,Y,isk,Ishkashimi,0,6,Islam,0.06,0.06,14,A005,Persian-Median,299,C0211,Tajik,2,5,"Asia, Central",ASI,Asia,Y,Y,1,Y,36.71347,71.563232
AF,Afghanistan,19437,104950,Kalash (Chitrali),Kalash (Chitrali),11000,1,Y,khw,Khowar,3,6,Islam,0,0,21,A012,South Asian Peoples,462,A012,South Asia Muslim - other,2,5,"Asia, Central",ASI,Asia,Y,N,1,Y,36.653176,70.212641
AF,Afghanistan,12526,104638,Karakalpak,Karakalpak,3400,1,Y,kaa,Karakalpak,5,6,Islam,0,0,24,A015,Turkic Peoples,202,C0108,Kazakh,8,5,"Asia, Central",ASI,Asia,Y,N,1,Y,36.66888,67.10763
AF,Afghanistan,12599,104791,Kazakh,Kazakh,3400,1,Y,kaz,Kazakh,5,6,Islam,0,0,24,A015,Turkic Peoples,202,C0108,Kazakh,25,5,"Asia, Central",ASI,Asia,Y,N,1,Y,36.69403,69.12301
AF,Afghanistan,18125,113631,Khatri (Sikh traditions),Khatri (Sikh traditions),2900,1,Y,pan,"Punjabi, Eastern",5,8,Other / Small,0,0,21,A012,South Asian Peoples,470,A012,South Asia Sikh - other,2,5,"Asia, Central",ASI,Asia,Y,N,1,Y,34.321458,69.14323
AF,Afghanistan,18693,103535,Khik (Wakhi),Khik (Wakhi),21000,1,Y,wbl,Wakhi,3,6,Islam,0,0,14,A005,Persian-Median,299,C0211,Tajik,4,5,"Asia, Central",ASI,Asia,Y,Y,1,Y,36.96537,72.85094
AF,Afghanistan,11126,101922,"Kurd, Central","Kurd, Central",4200,1,Y,ckb,"Kurdish, Central",5,6,Islam,0.009,0.009,14,A005,Persian-Median,208,C0114,Kurd,5,5,"Asia, Central",ASI,Asia,Y,N,1,Y,34.5155,69.1952
AF,Afghanistan,12933,105550,Kyrgyz,Kyrgyz,1300,1,Y,kir,Kyrgyz,5,6,Islam,0,0,24,A015,Turkic Peoples,204,C0110,Kyrgyz,14,5,"Asia, Central",ASI,Asia,Y,N,1,Y,37.06464,74.24692
AF,Afghanistan,13761,106706,Moghal,Moghal,2400,1,Y,prs,Dari,5,6,Islam,0,0,21,A012,South Asian Peoples,462,A012,South Asia Muslim - other,6,5,"Asia, Central",ASI,Asia,Y,Y,1,Y,34.23626261,62.27592178
AF,Afghanistan,13878,106912,Munji,Munji,7300,1,Y,mnj,Munji,0,6,Islam,0,0,21,A012,South Asian Peoples,462,A012,South Asia Muslim - other,1,5,"Asia, Central",ASI,Asia,Y,Y,1,Y,35.79309,70.85744
AF,Afghanistan,17714,113164,Mussali,Mussali,3400,1,Y,pan,"Punjabi, Eastern",5,6,Islam,0,0,21,A012,South Asian Peoples,462,A012,South Asia Muslim - other,3,5,"Asia, Central",ASI,Asia,Y,N,1,Y,34.422154,69.095272
AF,Afghanistan,11835,103257,"Narisati, Arandui","Narisati, Arandui",41000,1,Y,gwt,Gawar-Bati,1,6,Islam,0,0,21,A012,South Asian Peoples,462,A012,South Asia Muslim - other,1,5,"Asia, Central",ASI,Asia,Y,Y,1,Y,35.22045,71.53814
AF,Afghanistan,10453,100556,"Nuristani, Ashkuni","Nuristani, Ashkuni",51000,1,Y,ask,Ashkun,0,6,Islam,0,0,14,A005,Persian-Median,251,C0159,Nuristan,1,5,"Asia, Central",ASI,Asia,Y,Y,1,Y,35.11697,70.5923
AF,Afghanistan,11936,103472,"Nuristani, Grangali","Nuristani, Grangali",12000,1,Y,nli,Grangali,0,6,Islam,0,0,14,A005,Persian-Median,251,C0159,Nuristan,1,5,"Asia, Central",ASI,Asia,Y,Y,1,Y,34.87613,70.70943
AF,Afghanistan,12482,104545,"Nuristani, Kamviri","Nuristani, Kamviri",23000,1,Y,xvi,Kamviri,1,6,Islam,0,0,14,A005,Persian-Median,251,C0159,Nuristan,1,5,"Asia, Central",ASI,Asia,Y,Y,1,Y,35.40963,71.32342
AF,Afghanistan,13431,106126,"Nuristani, Malakhel","Nuristani, Malakhel",3400,1,Y,prs,Dari,5,6,Islam,0,0,14,A005,Persian-Median,251,C0159,Nuristan,1,5,"Asia, Central",ASI,Asia,Y,Y,1,Y,34.13174,69.01918
AF,Afghanistan,10703,101097,"Nuristani, Narisati","Nuristani, Narisati",151000,1,Y,bsh,Kati,0,6,Islam,0.101,0,14,A005,Persian-Median,251,C0159,Nuristan,2,5,"Asia, Central",ASI,Asia,Y,Y,3,N,35.48049,70.75245
AF,Afghanistan,14461,108147,"Nuristani, Prasuni","Nuristani, Prasuni",10000,1,Y,prn,Prasuni,0,6,Islam,0,0,14,A005,Persian-Median,251,C0159,Nuristan,1,5,"Asia, Central",ASI,Asia,Y,Y,1,Y,35.4495,70.92815
AF,Afghanistan,15575,110188,"Nuristani, Tregami","Nuristani, Tregami",4400,1,Y,trm,Tregami,1,6,Islam,0,0,14,A005,Persian-Median,251,C0159,Nuristan,1,5,"Asia, Central",ASI,Asia,Y,Y,1,Y,35.0073,71.11979
AF,Afghanistan,15822,110623,"Nuristani, Waigeli","Nuristani, Waigeli",33000,1,Y,wbk,Waigali,0,6,Islam,0,0,14,A005,Persian-Median,251,C0159,Nuristan,1,5,"Asia, Central",ASI,Asia,Y,Y,1,Y,35.17784,71.05953
AF,Afghanistan,15735,110432,Ormuri,Ormuri,3400,1,Y,pbt,"Pashto, Southern",3,6,Islam,0,0,21,A012,South Asian Peoples,463,A012,South Asia Muslim - Pashtun,1,5,"Asia, Central",ASI,Asia,Y,Y,1,Y,32.77482,68.91851
AF,Afghanistan,14255,107747,Pahlavani,Pahlavani,3900,1,Y,prs,Dari,5,6,Islam,0,0,14,A005,Persian-Median,268,C0179,Persian,1,5,"Asia, Central",ASI,Asia,Y,Y,1,Y,31.33334,62.19879
AF,Afghanistan,14311,107875,Parachi,Parachi,8400,1,Y,prc,Parachi,0,6,Islam,0,0,14,A005,Persian-Median,268,C0179,Persian,1,5,"Asia, Central",ASI,Asia,Y,Y,1,Y,35.07936,69.64313
AF,Afghanistan,14322,107901,Parsee,Parsee,2400,1,Y,prs,Dari,5,8,Other / Small,0,0,14,A005,Persian-Median,268,C0179,Persian,11,5,"Asia, Central",ASI,Asia,Y,Y,1,Y,34.245037,61.583604
AF,Afghanistan,14324,107906,Parya,"Parya, Laghmani",400,1,Y,paq,Parya,0,6,Islam,0,0,14,A005,Persian-Median,299,C0211,Tajik,3,5,"Asia, Central",ASI,Asia,Y,Y,1,Y,34.47933,69.89671
AF,Afghanistan,18369,113939,Pashayi,Pashayi,49000,1,Y,mvy,"Kohistani, Indus",3,6,Islam,0,0,21,A012,South Asian Peoples,462,A012,South Asia Muslim - other,2,5,"Asia, Central",ASI,Asia,Y,Y,1,Y,34.204284,69.45316
AF,Afghanistan,13996,107420,"Pashayi, Northeast","Pashayi, Northeast",96000,1,Y,aee,"Pashai, Northeast",1,6,Islam,0,0,21,A012,South Asian Peoples,462,A012,South Asia Muslim - other,1,5,"Asia, Central",ASI,Asia,Y,Y,2,Y,34.66002,70.43166
AF,Afghanistan,14042,107474,"Pashayi, Northwest","Pashayi, Northwest",100000,1,Y,glh,"Pashai, Northwest",0,6,Islam,0,0,21,A012,South Asian Peoples,462,A012,South Asia Muslim - other,1,5,"Asia, Central",ASI,Asia,Y,Y,2,Y,34.96106,70.04196
AF,Afghanistan,15025,109456,"Pashayi, Southeast","Pashayi, Southeast",572000,1,Y,psi,"Pashai, Southeast",0,6,Islam,0,0,21,A012,South Asian Peoples,462,A012,South Asia Muslim - other,1,5,"Asia, Central",ASI,Asia,Y,Y,11,Y,34.43099,70.30351
AF,Afghanistan,15072,109523,"Pashayi, Southwest","Pashayi, Southwest",126000,1,Y,psh,"Pashai, Southwest",1,6,Islam,0.009,0,21,A012,South Asian Peoples,462,A012,South Asia Muslim - other,1,5,"Asia, Central",ASI,Asia,Y,Y,3,Y,34.88104,69.77576
AF,Afghanistan,14256,107909,"Pashtun, Northern","Pashtun, Northern",2878000,1,Y,pbu,"Pashto, Northern",5,6,Islam,0.01,0.01,21,A012,South Asian Peoples,463,A012,South Asia Muslim - Pashtun,18,5,"Asia, Central",ASI,Asia,Y,Y,58,Y,33.562,68.363
AF,Afghanistan,14327,109502,"Pashtun, Southern","Pashtun, Southern",10416000,1,Y,pbt,"Pashto, Southern",3,6,Islam,0.019,0.019,21,A012,South Asian Peoples,463,A012,South Asia Muslim - Pashtun,9,5,"Asia, Central",ASI,Asia,Y,Y,208,Y,33.562,68.363
AF,Afghanistan,14371,107987,Persian,Persian,694000,1,Y,pes,"Persian, Iranian",5,6,Islam,0.119,0.1,14,A005,Persian-Median,268,C0179,Persian,43,5,"Asia, Central",ASI,Asia,Y,N,14,N,34.25821094,62.44608334
AF,Afghanistan,14483,108182,Punjabi,Punjabi,6200,1,Y,pan,"Punjabi, Eastern",5,6,Islam,1,0.3,21,A012,South Asian Peoples,462,A012,South Asia Muslim - other,18,5,"Asia, Central",ASI,Asia,Y,Y,1,N,34.1478388,71.07321336
AF,Afghanistan,15382,110802,"Punjabi, Western","Punjabi, Western",39000,1,Y,pnb,"Punjabi, Western",4,6,Islam,0.2,0.1,21,A012,South Asian Peoples,462,A012,South Asia Muslim - other,2,5,"Asia, Central",ASI,Asia,Y,Y,1,N,34.757485,70.301167
AF,Afghanistan,14498,108231,Qizilbash,Qizilbash,313000,1,Y,prs,Dari,5,6,Islam,0,0,24,A015,Turkic Peoples,309,C0221,Turkish,2,5,"Asia, Central",ASI,Asia,Y,Y,6,Y,32.364777,62.09403
AF,Afghanistan,14570,108397,"Romani, Balkan","Romani, Balkan",18000,1,Y,rmn,"Romani, Balkan",5,6,Islam,0,0,12,A003,Eurasian Peoples,354,C0279,Romani,17,5,"Asia, Central",ASI,Asia,Y,N,1,Y,34.35045528,62.15133813
AF,Afghanistan,11597,102682,"Romani, Domari","Romani, Domari",12000,1,Y,rmt,Domari,3,6,Islam,0.015,0,14,A005,Persian-Median,353,C0278,Domari,15,5,"Asia, Central",ASI,Asia,Y,N,1,Y,34.47461,69.12958
AF,Afghanistan,14598,108452,Russian,Russian,1000,2,N,rus,Russian,5,7,Non-Religious,31,0.3,12,A003,Eurasian Peoples,283,C0194,"Slav, Eastern",71,5,"Asia, Central",ASI,Asia,Y,N,,N,34.708655,69.232984
AF,Afghanistan,14727,108647,Sanglechi,Sanglechi,2900,1,Y,sgy,Sanglechi,1,6,Islam,0,0,14,A005,Persian-Median,299,C0211,Tajik,2,5,"Asia, Central",ASI,Asia,Y,Y,1,Y,36.67411,71.57368
AF,Afghanistan,14782,108746,Sau,Sau,5100,1,Y,sdg,Savi,0,6,Islam,0,0,21,A012,South Asian Peoples,462,A012,South Asia Muslim - other,1,5,"Asia, Central",ASI,Asia,Y,Y,1,Y,35.16964,71.4591
AF,Afghanistan,14921,108967,Shughni,Shughni,47000,1,Y,sgh,Shughni,3,6,Islam,0,0,14,A005,Persian-Median,299,C0211,Tajik,2,5,"Asia, Central",ASI,Asia,Y,Y,1,Y,37.59163,71.37385
AF,Afghanistan,14924,108970,Shumashti,Shumashti,1700,1,Y,sts,Shumashti,1,6,Islam,0,0,21,A012,South Asian Peoples,462,A012,South Asia Muslim - other,1,5,"Asia, Central",ASI,Asia,Y,Y,1,Y,34.74897,70.75085
AF,Afghanistan,14192,109027,Sindhi,Sindhi,25000,1,Y,snd,Sindhi,5,6,Islam,0.079,0.079,21,A012,South Asian Peoples,468,A012,South Asia - other,8,5,"Asia, Central",ASI,Asia,Y,N,1,Y,34.51736844,69.10888638
AF,Afghanistan,15253,109822,Tangshuri,Tangshuri,17000,1,Y,prs,Dari,5,6,Islam,0,0,14,A005,Persian-Median,299,C0211,Tajik,1,5,"Asia, Central",ASI,Asia,Y,Y,1,Y,38.11159,71.21229
AF,Afghanistan,15500,110076,Tirahi,Tirahi,6000,1,Y,pbt,"Pashto, Southern",3,6,Islam,0,0,21,A012,South Asian Peoples,462,A012,South Asia Muslim - other,1,5,"Asia, Central",ASI,Asia,Y,Y,1,Y,31.81734,66.46972
AF,Afghanistan,18274,113818,Turk,Turk,11000,1,Y,tur,Turkish,5,6,Islam,0,0,24,A015,Turkic Peoples,309,C0221,Turkish,68,5,"Asia, Central",ASI,Asia,Y,N,1,Y,34.558664,68.887656
AF,Afghanistan,15654,110306,Turkmen,Turkmen,2273000,1,Y,tuk,Turkmen,5,6,Islam,0,0,24,A015,Turkic Peoples,310,C0222,Turkmen,12,5,"Asia, Central",ASI,Asia,Y,Y,45,Y,36.59488,64.75669
AF,Afghanistan,15755,110469,Uyghur,Uyghur,3600,1,Y,uig,Uyghur,5,6,Islam,0.05,0.05,24,A015,Turkic Peoples,313,C0225,Uyghur,17,5,"Asia, Central",ASI,Asia,Y,N,1,Y,34.89379,62.7225
AF,Afghanistan,15756,110472,"Uzbek, Southern","Uzbek, Southern",4593000,1,Y,uzs,"Uzbek, Southern",3,6,Islam,0.009,0.009,24,A015,Turkic Peoples,314,C0226,Uzbek,5,5,"Asia, Central",ASI,Asia,Y,Y,92,Y,36.33165,66.70937
AF,Afghanistan,15866,110689,Warduji,Warduji,8400,1,Y,prs,Dari,5,6,Islam,0,0,14,A005,Persian-Median,268,C0179,Persian,1,5,"Asia, Central",ASI,Asia,Y,Y,1,Y,36.98774,70.86259
AF,Afghanistan,15418,110865,Wotapuri-Katarqalai,Wotapuri-Katarqalai,3600,1,Y,pbu,"Pashto, Northern",5,6,Islam,0,0,21,A012,South Asian Peoples,462,A012,South Asia Muslim - other,1,5,"Asia, Central",ASI,Asia,Y,Y,1,Y,35.121354,70.981163
AL,Albania,11880,103338,Albanian,Albanian,2714000,2,N,aln,"Albanian, Gheg",4,6,Islam,33,0.584,12,A003,Eurasian Peoples,106,C0008,Albanian,21,9,"Europe, Eastern and Eurasia",EUR,Europe,Y,Y,,N,41.10981496,20.08186067
AL,Albania,15741,110448,"Americans, U.S.","Americans, U.S.",2000,5,N,eng,English,5,1,Christianity,78,33,18,A009,North American Peoples,109,C0011,Anglo-American,104,9,"Europe, Eastern and Eurasia",EUR,Europe,Y,N,,N,41.333518,19.810378
AL,Albania,10328,100356,Anglo-Canadian,Anglo-Canadian,800,5,N,eng,English,5,1,Christianity,78,10.5,12,A003,Eurasian Peoples,110,C0012,Anglo-Celt,21,9,"Europe, Eastern and Eurasia",EUR,Europe,Y,N,,N,41.33587,19.834638
AL,Albania,10431,100520,Aromanian,Aromanian,7200,3,N,rup,Aromanian,3,1,Christianity,95,0.8,12,A003,Eurasian Peoples,276,C0187,Romanian,8,9,"Europe, Eastern and Eurasia",EUR,Europe,Y,Y,,N,40.23232,20.63302
AL,Albania,19007,114916,Deaf,Deaf,14000,2,N,sqk,Albanian Sign Language,1,6,Islam,30.47,,26,A017,Deaf,328,C0252,Deaf,216,9,"Europe, Eastern and Eurasia",EUR,Europe,Y,Y,,N,41.32315375,19.79790902
AL,Albania,20676,117066,"Egyptian, Balkan","Egyptian, Balkan",2900,1,Y,als,"Albanian, Tosk",5,6,Islam,4,0,12,A003,Eurasian Peoples,106,C0008,Albanian,5,9,"Europe, Eastern and Eurasia",EUR,Europe,Y,N,1,N,41.345601,19.818675
AL,Albania,19215,115094,"European, general","European, general",6200,3,N,eng,English,5,1,Christianity,65,0.5,12,A003,Eurasian Peoples,110,C0012,Anglo-Celt,7,9,"Europe, Eastern and Eurasia",EUR,Europe,Y,N,,N,41.421921,19.892526
AL,Albania,18765,114431,Gorani,Gorani,35000,1,Y,srp,Serbian,5,6,Islam,5,0,12,A003,Eurasian Peoples,284,C0195,"Slav, Southern",4,9,"Europe, Eastern and Eurasia",EUR,Europe,Y,Y,1,N,40.660934,19.698161
AL,Albania,11942,103480,Greek,Greek,27000,3,N,ell,Greek,5,1,Christianity,90,0.2,12,A003,Eurasian Peoples,178,C0082,Greek,72,9,"Europe, Eastern and Eurasia",EUR,Europe,Y,N,,N,40.07766,20.18662
AL,Albania,12273,104096,Italian,Italian,7600,3,N,ita,Italian,5,1,Christianity,87,1.1,12,A003,Eurasian Peoples,193,C0098,Italian,61,9,"Europe, Eastern and Eurasia",EUR,Europe,Y,N,,N,41.324095,19.801377
AL,Albania,13186,105968,Macedonian,Macedonian,5400,3,N,mkd,Macedonian,5,1,Christianity,90,1,12,A003,Eurasian Peoples,284,C0195,"Slav, Southern",29,9,"Europe, Eastern and Eurasia",EUR,Europe,Y,Y,,N,41.68565,20.14576
AL,Albania,13798,106775,Montenegrin,Montenegrin,1300,3,N,srp,Serbian,5,1,Christianity,70,0.14,12,A003,Eurasian Peoples,284,C0195,"Slav, Southern",9,9,"Europe, Eastern and Eurasia",EUR,Europe,Y,N,,N,40.52515947,19.9205882
AL,Albania,14567,108394,"Romani, Vlax","Romani, Vlax",7200,4,N,rmy,"Romani, Vlax",5,6,Islam,25,6,12,A003,Eurasian Peoples,354,C0279,Romani,30,9,"Europe, Eastern and Eurasia",EUR,Europe,Y,N,,N,40.80073826,19.91142436
AL,Albania,14864,108856,Serb,Serb,1300,3,N,srp,Serbian,5,1,Christianity,69,0.05,12,A003,Eurasian Peoples,284,C0195,"Slav, Southern",40,9,"Europe, Eastern and Eurasia",EUR,Europe,Y,Y,,N,40.53107063,19.92169761
AL,Albania,18274,113818,Turk,Turk,1700,1,Y,tur,Turkish,5,6,Islam,0.01,0.003,24,A015,Turkic Peoples,309,C0221,Turkish,68,9,"Europe, Eastern and Eurasia",EUR,Europe,Y,Y,1,Y,41.338572,19.796522
AG,Algeria,10379,100226,"Algerian, Arabic-speaking","Algerian, Arabic-speaking",32932000,1,Y,arq,"Arabic, Algerian Spoken",4,6,Islam,0.009,0.008,10,A001,Arab World,115,C0017,"Arab, Maghreb",18,6,"Africa, North and Middle East",AFR,Africa,Y,Y,659,Y,35.99742458,5.389438574
AG,Algeria,11722,102879,"Arab, Egyptian","Arab, Egyptian",18000,2,N,arz,"Arabic, Egyptian Spoken",4,6,Islam,11,2,10,A001,Arab World,163,C0067,Egyptian,34,6,"Africa, North and Middle East",AFR,Africa,Y,N,,N,36.70941315,3.098095943
AG,Algeria,12247,104056,"Arab, Iraqi","Arab, Iraqi",4800,1,Y,acm,"Arabic, Mesopotamian Spoken",4,6,Islam,0.699,0.699,10,A001,Arab World,113,C0015,"Arab, Levant",24,6,"Africa, North and Middle East",AFR,Africa,Y,N,1,N,28.48947,1.28377
AG,Algeria,13819,106804,"Arab, Moroccan","Arab, Moroccan",187000,1,Y,ary,"Arabic, Moroccan Spoken",4,6,Islam,0.15,0.15,10,A001,Arab World,115,C0017,"Arab, Maghreb",21,6,"Africa, North and Middle East",AFR,Africa,Y,N,4,N,35.672832,-0.625895
AG,Algeria,11633,102751,"Bedouin, Dui-Menia","Bedouin, Dui-Menia",85000,1,Y,arq,"Arabic, Algerian Spoken",4,6,Islam,0.009,0,10,A001,Arab World,137,C0041,"Bedouin, Saharan",1,6,"Africa, North and Middle East",AFR,Africa,Y,Y,2,Y,30.86561001,-2.458410721
AG,Algeria,12944,105567,"Bedouin, Laguat","Bedouin, Laguat",20000,1,Y,aao,"Arabic, Algerian Saharan Spoken",3,6,Islam,0,0,10,A001,Arab World,137,C0041,"Bedouin, Saharan",1,6,"Africa, North and Middle East",AFR,Africa,Y,Y,1,Y,33.95739228,3.103844449
AG,Algeria,13922,107028,"Bedouin, Nail","Bedouin, Nail",40000,1,Y,arq,"Arabic, Algerian Spoken",4,6,Islam,0,0,10,A001,Arab World,137,C0041,"Bedouin, Saharan",1,6,"Africa, North and Middle East",AFR,Africa,Y,Y,1,Y,34.14495886,4.588845476
AG,Algeria,14584,108427,"Bedouin, Ruarha","Bedouin, Ruarha",85000,1,Y,arq,"Arabic, Algerian Spoken",4,6,Islam,0,0,10,A001,Arab World,115,C0017,"Arab, Maghreb",1,6,"Africa, North and Middle East",AFR,Africa,Y,Y,2,Y,33.52546407,6.014430076
AG,Algeria,14938,108988,"Bedouin, Sidi","Bedouin, Sidi",20000,1,Y,aao,"Arabic, Algerian Saharan Spoken",3,6,Islam,0.009,0,10,A001,Arab World,137,C0041,"Bedouin, Saharan",1,6,"Africa, North and Middle East",AFR,Africa,Y,Y,1,Y,27.611488,-3.430999
AG,Algeria,15095,109560,"Bedouin, Suafa","Bedouin, Suafa",135000,1,Y,arq,"Arabic, Algerian Spoken",4,6,Islam,0.009,0,10,A001,Arab World,137,C0041,"Bedouin, Saharan",1,6,"Africa, North and Middle East",AFR,Africa,Y,Y,3,Y,33.95742204,6.849871519
AG,Algeria,16103,111176,"Bedouin, Ziban","Bedouin, Ziban",20000,1,Y,aao,"Arabic, Algerian Saharan Spoken",3,6,Islam,0,0,10,A001,Arab World,137,C0041,"Bedouin, Saharan",1,6,"Africa, North and Middle East",AFR,Africa,Y,Y,1,Y,28.419452,-5.944667
AG,Algeria,10774,101223,Belbali,Belbali,3800,1,Y,kcy,Korandje,0,6,Islam,0,0,22,A013,Sub-Saharan Peoples,288,C0199,Songhai,1,6,"Africa, North and Middle East",AFR,Africa,Y,Y,1,Y,29.51367,-2.56296
AG,Algeria,11199,103014,"Berber, Figig","Berber, Figig",85000,1,Y,tzm,"Tamazight, Central Atlas",3,6,Islam,0.019,0,10,A001,Arab World,141,C0045,Berber-Saharan,1,6,"Africa, North and Middle East",AFR,Africa,Y,Y,2,Y,31.96320642,-0.961098651
AG,Algeria,12217,104002,"Berber, Imazighen","Berber, Imazighen",1703000,1,Y,tzm,"Tamazight, Central Atlas",3,6,Islam,0.1,0.09,10,A001,Arab World,145,C0049,Berber-Shilha,6,6,"Africa, North and Middle East",AFR,Africa,Y,Y,34,Y,33.563667,-0.28593
AG,Algeria,12399,104365,"Berber, Kabyle","Berber, Kabyle",6433000,1,Y,kab,Amazigh,5,6,Islam,0.25,0.24,10,A001,Arab World,142,C0046,Berber-Kabyle,5,6,"Africa, North and Middle East",AFR,Africa,Y,Y,129,N,36.39003,4.55784
AG,Algeria,13669,106536,"Berber, Menasser","Berber, Menasser",85000,1,Y,tzm,"Tamazight, Central Atlas",3,6,Islam,0,0,10,A001,Arab World,145,C0049,Berber-Shilha,1,6,"Africa, North and Middle East",AFR,Africa,Y,Y,2,Y,32.94803788,-0.590039475
AG,Algeria,13842,106837,"Berber, Mozabite","Berber, Mozabite",194000,1,Y,mzb,Tumzabt,0,6,Islam,0,0,10,A001,Arab World,141,C0045,Berber-Saharan,2,6,"Africa, North and Middle East",AFR,Africa,Y,Y,4,Y,32.47268,3.84135
AG,Algeria,10803,101275,"Berber, Rif","Berber, Rif",500,1,Y,rif,Tarifit,4,6,Islam,0.019,0.005,10,A001,Arab World,143,C0047,Berber-Riff,4,6,"Africa, North and Middle East",AFR,Africa,Y,N,1,Y,35.83907,-0.34831
AG,Algeria,14899,108925,"Berber, Shawiya","Berber, Shawiya",2380000,1,Y,shy,Tachawit,3,6,Islam,0,0,10,A001,Arab World,144,C0048,Berber-Shawiya,6,6,"Africa, North and Middle East",AFR,Africa,Y,Y,48,Y,35.27603,6.93694
AG,Algeria,14911,108945,"Berber, Southern Shilha","Berber, Southern Shilha",6700,1,Y,shi,Tachelhit,4,6,Islam,0.09,0,10,A001,Arab World,145,C0049,Berber-Shilha,3,6,"Africa, North and Middle East",AFR,Africa,Y,Y,1,Y,29.29423,-7.3006
AG,Algeria,15609,110235,"Berber, Taznatit","Berber, Taznatit",12000,1,Y,grr,Taznatit,0,6,Islam,0.009,0.009,10,A001,Arab World,141,C0045,Berber-Saharan,1,6,"Africa, North and Middle East",AFR,Africa,Y,Y,1,Y,29.1496,0.10051
AG,Algeria,15473,110042,"Berber, Tidikelt Tamzight","Berber, Tidikelt Tamzight",1100,1,Y,arq,"Arabic, Algerian Spoken",4,6,Islam,0.029,0.01,10,A001,Arab World,141,C0045,Berber-Saharan,1,6,"Africa, North and Middle East",AFR,Africa,Y,Y,1,Y,26.91172,1.79388
AG,Algeria,15572,110182,"Berber, Tougourt","Berber, Tougourt",8400,1,Y,arq,"Arabic, Algerian Spoken",4,6,Islam,0.05,0.04,10,A001,Arab World,141,C0045,Berber-Saharan,1,6,"Africa, North and Middle East",AFR,Africa,Y,Y,1,Y,33.31437,6.0497
AG,Algeria,11140,102927,British,British,800,4,N,eng,English,5,1,Christianity,71,8,12,A003,Eurasian Peoples,110,C0012,Anglo-Celt,127,6,"Africa, North and Middle East",AFR,Africa,Y,N,,N,36.740581,3.047684
AG,Algeria,11321,102070,Chenoua,Chenoua,106000,1,Y,cnu,Chenoua,1,6,Islam,0,0,10,A001,Arab World,142,C0046,Berber-Kabyle,1,6,"Africa, North and Middle East",AFR,Africa,Y,Y,2,Y,36.60729,2.19664
AG,Algeria,19206,115066,"Chinese, general","Chinese, general",37000,1,Y,cmn,"Chinese, Mandarin",5,7,Non-Religious,1,0.8,11,A002,East Asian Peoples,161,C0065,Chinese,63,6,"Africa, North and Middle East",AFR,Africa,Y,N,1,N,36.685411,3.21938
AG,Algeria,19007,114916,Deaf,Deaf,227000,1,Y,asp,Algerian Sign Language,1,6,Islam,0.28,,26,A017,Deaf,328,C0252,Deaf,216,6,"Africa, North and Middle East",AFR,Africa,Y,Y,5,N,36.4762,3.5462
AG,Algeria,11234,103059,French,French,14000,3,N,fra,French,5,1,Christianity,66,0.4,12,A003,Eurasian Peoples,172,C0076,French,114,6,"Africa, North and Middle East",AFR,Africa,Y,N,,N,31.6094,2.49053
AG,Algeria,12070,103733,Hausa,Hausa,12000,1,Y,hau,Hausa,5,6,Islam,0,0,22,A013,Sub-Saharan Peoples,186,C0090,Hausa,16,6,"Africa, North and Middle East",AFR,Africa,Y,N,1,Y,26.50063207,8.477400933
AG,Algeria,12178,103948,Idaksahak,Idaksahak,3900,1,Y,dsq,Tadaksahak,1,6,Islam,0,0,22,A013,Sub-Saharan Peoples,288,C0199,Songhai,2,6,"Africa, North and Middle East",AFR,Africa,Y,N,1,Y,29.41261534,-3.286603179
AG,Algeria,18364,113933,Ouargla,Ouargla,23000,1,Y,oua,Tagargrent,0,6,Islam,0.05,0.02,10,A001,Arab World,141,C0045,Berber-Saharan,1,6,"Africa, North and Middle East",AFR,Africa,Y,Y,1,Y,31.94879,5.27286
AG,Algeria,14570,108397,"Romani, Balkan","Romani, Balkan",4700,1,Y,arq,"Arabic, Algerian Spoken",4,6,Islam,0.09,0.09,12,A003,Eurasian Peoples,354,C0279,Romani,17,6,"Africa, North and Middle East",AFR,Africa,Y,Y,1,Y,36.62111916,3.096820261
AG,Algeria,14639,108512,Sahrawi,Sahrawi,173000,1,Y,mey,"Arabic, Hassaniyya",4,6,Islam,0.005,0.005,10,A001,Arab World,112,C0014,"Arab, Hassaniya",5,6,"Africa, North and Middle East",AFR,Africa,Y,Y,3,Y,27.67405367,-8.146384189
AG,Algeria,15077,109534,Spaniard,Spaniard,700,3,N,spa,Spanish,5,1,Christianity,69,0.2,12,A003,Eurasian Peoples,291,C0202,Spanish,50,6,"Africa, North and Middle East",AFR,Africa,Y,N,,N,36.695453,2.989062
AG,Algeria,15199,109730,Tajakant,Tajakant,51000,1,Y,mey,"Arabic, Hassaniyya",4,6,Islam,0,0,10,A001,Arab World,137,C0041,"Bedouin, Saharan",2,6,"Africa, North and Middle East",AFR,Africa,Y,Y,1,Y,35.42078,3.23033
AG,Algeria,15226,109776,"Tuareg, Algerian","Tuareg, Algerian",76000,1,Y,aao,"Arabic, Algerian Saharan Spoken",3,6,Islam,0.009,0.009,10,A001,Arab World,307,C0219,Tuareg,3,6,"Africa, North and Middle East",AFR,Africa,Y,Y,2,Y,28.14156,1.84671
AG,Algeria,15608,110233,"Tuareg, Tahaggart","Tuareg, Tahaggart",74000,1,Y,thv,"Tamahaq, Tahaggart",3,6,Islam,0,0,10,A001,Arab World,307,C0219,Tuareg,3,6,"Africa, North and Middle East",AFR,Africa,Y,Y,1,Y,22.48174,6.3768
AG,Algeria,18274,113818,Turk,Turk,3600,1,Y,tur,Turkish,5,6,Islam,0,0,24,A015,Turkic Peoples,309,C0221,Turkish,68,6,"Africa, North and Middle East",AFR,Africa,Y,N,1,Y,35.692,-0.622
AQ,American Samoa,15741,110448,"Americans, U.S.","Americans, U.S.",1000,5,N,eng,English,5,1,Christianity,91.5,31,18,A009,North American Peoples,109,C0011,Anglo-American,104,1,Australia and Pacific,SOP,Oceania,N,N,,N,-14.31,-170.8
AQ,American Samoa,19007,114916,Deaf,Deaf,300,3,N,xxx,Language unknown,0,1,Christianity,95.1,,26,A017,Deaf,328,C0252,Deaf,216,1,Australia and Pacific,SOP,Oceania,N,Y,,N,-14.316407,-170.744101
AQ,American Samoa,11165,102966,Euronesian,Euronesian,3800,5,N,eng,English,5,1,Christianity,96,26,19,A010,Pacific Islanders,259,C0170,"Pacific Islanders, other",9,1,Australia and Pacific,SOP,Oceania,N,Y,,N,-14.32474,-170.79946
AQ,American Samoa,15175,109692,"Filipino, Tagalog","Filipino, Tagalog",700,5,N,tgl,Tagalog,5,1,Christianity,98,12,17,A008,Malay Peoples,166,C0070,"Filipino, Central",55,1,Australia and Pacific,SOP,Oceania,N,N,,N,-14.281954,-170.694914
AQ,American Samoa,12322,104189,Japanese,Japanese,1000,1,Y,jpn,Japanese,5,2,Buddhism,5,1,11,A002,East Asian Peoples,194,C0099,Japanese,44,1,Australia and Pacific,SOP,Oceania,N,N,1,N,-14.276768,-170.709739
AQ,American Samoa,12795,105225,Korean,Korean,500,5,N,kor,Korean,5,1,Christianity,35,20,11,A002,East Asian Peoples,205,C0111,Korean,50,1,Australia and Pacific,SOP,Oceania,N,N,,N,-14.281501,-170.708377
AQ,American Samoa,14676,108580,Samoan,Samoan,46000,5,N,smo,Samoan,5,1,Christianity,98,25.943,19,A010,Pacific Islanders,269,C0180,Polynesian,6,1,Australia and Pacific,SOP,Oceania,N,Y,,N,-14.29333,-170.70238
AQ,American Samoa,15535,110132,Tokelauan,Tokelauan,90,5,N,tkl,Tokelauan,4,1,Christianity,95,30,19,A010,Pacific Islanders,269,C0180,Polynesian,3,1,Australia and Pacific,SOP,Oceania,N,N,,N,-14.29119,-170.74249
AQ,American Samoa,15554,110155,Tongan,Tongan,700,5,N,ton,Tongan,5,1,Christianity,96.1,22,19,A010,Pacific Islanders,269,C0180,Polynesian,6,1,Australia and Pacific,SOP,Oceania,N,N,,N,-14.31318,-170.74249
AN,Andorra,13819,106804,"Arab, Moroccan","Arab, Moroccan",500,1,Y,ary,"Arabic, Moroccan Spoken",4,6,Islam,1,0.699,10,A001,Arab World,115,C0017,"Arab, Maghreb",21,10,"Europe, Western",EUR,Europe,N,N,1,N,42.534721,1.475602
AN,Andorra,11140,102927,British,British,900,4,N,eng,English,5,1,Christianity,69,3,12,A003,Eurasian Peoples,110,C0012,Anglo-Celt,127,10,"Europe, Western",EUR,Europe,N,N,,N,42.5463784,1.512425625
AN,Andorra,11108,101896,Catalonian,"Catalonian, Andorran",33000,3,N,cat,Catalan,5,1,Christianity,96,0.587,12,A003,Eurasian Peoples,291,C0202,Spanish,10,10,"Europe, Western",EUR,Europe,N,Y,,N,42.55944861,1.58292558
AN,Andorra,19007,114916,Deaf,Deaf,200,3,N,xxx,Language unknown,0,1,Christianity,90.78,,26,A017,Deaf,328,C0252,Deaf,216,10,"Europe, Western",EUR,Europe,N,Y,,N,42.548474,1.562219
AN,Andorra,11234,103059,French,French,4500,3,N,fra,French,5,1,Christianity,76,0.2,12,A003,Eurasian Peoples,172,C0076,French,114,10,"Europe, Western",EUR,Europe,N,N,,N,42.55153746,1.578741197
AN,Andorra,11871,103305,German,German,600,3,N,deu,"German, Standard",5,1,Christianity,78,1,12,A003,Eurasian Peoples,175,C0079,Germanic,80,10,"Europe, Western",EUR,Europe,N,N,,N,42.510138,1.495969
AN,Andorra,12273,104096,Italian,Italian,600,3,N,ita,Italian,5,1,Christianity,85,1,12,A003,Eurasian Peoples,193,C0098,Italian,61,10,"Europe, Western",EUR,Europe,N,N,,N,42.507921,1.520812
AN,Andorra,14449,108129,Portuguese,Portuguese,12000,4,N,por,Portuguese,5,1,Christianity,95,5.036,12,A003,Eurasian Peoples,271,C0182,"Portuguese, European",46,10,"Europe, Western",EUR,Europe,N,N,,N,42.50461698,1.512446249
AN,Andorra,19211,115527,"South Asian, general","South Asian, general",600,1,Y,hin,Hindi,5,5,Hinduism,1,0.3,21,A012,South Asian Peoples,468,A012,South Asia - other,59,10,"Europe, Western",EUR,Europe,N,N,1,N,42.480647,1.53237
AN,Andorra,15077,109534,Spaniard,Spanish,23000,3,N,spa,Spanish,5,1,Christianity,89,0.839,12,A003,Eurasian Peoples,291,C0202,Spanish,50,10,"Europe, Western",EUR,Europe,N,N,,N,42.54865,1.60125
AO,Angola,10168,100093,Afrikaner,Afrikaner,2300,5,N,afr,Afrikaans,5,1,Christianity,97,35,12,A003,Eurasian Peoples,175,C0079,Germanic,15,7,"Africa, East and Southern",AFR,Africa,N,N,,N,-15.25411806,13.57093379
AO,Angola,13289,107169,"Ambo, Ndonga","Ambo, Ndonga",42000,5,N,ndo,Ndonga,5,1,Christianity,95,23,22,A013,Sub-Saharan Peoples,340,C0264,"Bantu, Central-Southwest",2,7,"Africa, East and Southern",AFR,Africa,N,N,,N,-17.25975,21.43357
AO,Angola,10918,101570,Bolo,"Bolo, Haka",5400,4,N,blv,Kibala,2,1,Christianity,65,7,22,A013,Sub-Saharan Peoples,340,C0264,"Bantu, Central-Southwest",1,7,"Africa, East and Southern",AFR,Africa,N,Y,,N,-10.27549,15.10681
AO,Angola,11140,102927,British,British,1300,4,N,eng,English,5,1,Christianity,70,7,12,A003,Eurasian Peoples,110,C0012,Anglo-Celt,127,7,"Africa, East and Southern",AFR,Africa,N,N,,N,-12.73683665,15.74379959
AO,Angola,11069,101838,Cape Verdean,Cape Verdean,82000,4,N,kea,Kabuverdianu,3,1,Christianity,98,4,22,A013,Sub-Saharan Peoples,262,C0173,"Sub-Saharan African, other",18,7,"Africa, East and Southern",AFR,Africa,N,N,,N,-8.60325,13.455789
AO,Angola,19206,115066,"Chinese, general","Chinese, general",53000,1,Y,cmn,"Chinese, Mandarin",5,7,Non-Religious,1.049,0.7,11,A002,East Asian Peoples,161,C0065,Chinese,63,7,"Africa, East and Southern",AFR,Africa,N,N,1,N,-8.843978903,13.22338566
AO,Angola,11365,102181,Chokwe,Chokwe,2240000,5,N,cjk,Chokwe,5,1,Christianity,85,43.801,22,A013,Sub-Saharan Peoples,338,C0262,"Bantu, Central-South",4,7,"Africa, East and Southern",AFR,Africa,N,Y,,N,-9.65336,20.16828
AO,Angola,19007,114916,Deaf,Deaf,350000,3,N,xxx,Language unknown,0,1,Christianity,94.09,,26,A017,Deaf,328,C0252,Deaf,216,7,"Africa, East and Southern",AFR,Africa,N,Y,,N,-8.823471615,13.26896739
AO,Angola,11545,102579,Dhimba,Dhimba,33000,5,N,dhm,Dhimba,4,1,Christianity,70,25,22,A013,Sub-Saharan Peoples,340,C0264,"Bantu, Central-Southwest",2,7,"Africa, East and Southern",AFR,Africa,N,Y,,N,-16.55169,13.69577
AO,Angola,19208,101861,"English-Speaking, general","English-speaking, general",26000,5,N,eng,English,5,1,Christianity,84,25,12,A003,Eurasian Peoples,325,C0239,"Caucasian Peoples, general",8,7,"Africa, East and Southern",AFR,Africa,N,N,,N,-8.837257,13.553865
AO,Angola,11234,103059,French,French,7900,3,N,fra,French,5,1,Christianity,76,0.2,12,A003,Eurasian Peoples,172,C0076,French,114,7,"Africa, East and Southern",AFR,Africa,N,N,,N,-8.987234,13.421692
AO,Angola,11852,103280,Gciriku,"Gciriku, Shimbogedu",26000,5,N,diu,Gciriku,4,1,Christianity,50,35,22,A013,Sub-Saharan Peoples,203,C0109,Khoisan,3,7,"Africa, East and Southern",AFR,Africa,N,Y,,N,-17.76548,20.7608
AO,Angola,14681,108589,Heikum,"Heikum, Kedi",1700,4,N,hgm,Haiom,2,4,Ethnic Religions,10,10,22,A013,Sub-Saharan Peoples,203,C0109,Khoisan,3,7,"Africa, East and Southern",AFR,Africa,N,N,,N,-17.019218,21.301622
AO,Angola,12085,103756,Herero,Herero,26000,4,N,her,Herero,5,1,Christianity,95,10,22,A013,Sub-Saharan Peoples,340,C0264,"Bantu, Central-Southwest",3,7,"Africa, East and Southern",AFR,Africa,N,Y,,N,-16.73662494,14.97918132
AO,Angola,12116,103861,Holu,Holu,57000,4,N,hol,Holu,3,4,Ethnic Religions,50,4,22,A013,Sub-Saharan Peoples,338,C0262,"Bantu, Central-South",2,7,"Africa, East and Southern",AFR,Africa,N,Y,,N,-8.20931,17.5774
AO,Angola,21843,118458,Hungu,Hungu,909000,5,N,hng,Hungu,1,1,Christianity,93,30,22,A013,Sub-Saharan Peoples,345,C0269,"Bantu, Kongo",1,7,"Africa, East and Southern",AFR,Africa,N,Y,,N,-7.63,15.06
AO,Angola,13154,105927,Kimbundu,Kimbundu,8493000,5,N,kmb,Kimbundu,5,1,Christianity,97.3,22.462,22,A013,Sub-Saharan Peoples,347,C0271,"Bantu, Northwest",2,7,"Africa, East and Southern",AFR,Africa,N,Y,,N,-8.10198,15.05625
AO,Angola,12774,105179,Kongo,Kongo,3624000,5,N,kng,Koongo,5,1,Christianity,94.5,39.309,22,A013,Sub-Saharan Peoples,345,C0269,"Bantu, Kongo",4,7,"Africa, East and Southern",AFR,Africa,N,Y,,N,-6.63077,14.3043
AO,Angola,12775,105180,"Kongo, San Salvador","Kongo, San Salvador",21000,5,N,kwy,"Kongo, San Salvador",5,1,Christianity,98,33,22,A013,Sub-Saharan Peoples,345,C0269,"Bantu, Kongo",2,7,"Africa, East and Southern",AFR,Africa,N,N,,N,-5.59758,12.48045
AO,Angola,12856,105420,Kung-Ekoka,Kung-Ekoka,7900,2,N,knw,Kung-Ekoka,3,4,Ethnic Religions,10,0.2,22,A013,Sub-Saharan Peoples,203,C0109,Khoisan,4,7,"Africa, East and Southern",AFR,Africa,N,Y,,N,-7.28215,14.34318
AO,Angola,12857,105423,Kung-Tsumkwe,Kung-Tsumkwe,10000,4,N,ktz,Ju'hoan,4,4,Ethnic Religions,10,10,22,A013,Sub-Saharan Peoples,203,C0109,Khoisan,3,7,"Africa, East and Southern",AFR,Africa,N,N,,N,-17.711445,20.892357
AO,Angola,20990,117709,Kuvale,Kuvale,98000,5,N,olu,Kuvale,3,1,Christianity,80,12,22,A013,Sub-Saharan Peoples,338,C0262,"Bantu, Central-South",1,7,"Africa, East and Southern",AFR,Africa,N,Y,,N,-15,12.5
AO,Angola,21064,117895,Kwandu,Kwandu,8400,5,N,xdo,Kwandu,3,1,Christianity,85,30,22,A013,Sub-Saharan Peoples,338,C0262,"Bantu, Central-South",1,7,"Africa, East and Southern",AFR,Africa,N,Y,,N,-14.046703,13.313938
AO,Angola,12914,105527,Kwanyama,Kwanyama,796000,5,N,kua,Oshiwambo,5,1,Christianity,95,19.093,22,A013,Sub-Saharan Peoples,340,C0264,"Bantu, Central-Southwest",2,7,"Africa, East and Southern",AFR,Africa,N,Y,,N,-17.03144,16.34135
AO,Angola,10676,101038,"Kxoe, Xun","Kxoe, Xun",300,5,N,xuu,Khwedam,3,4,Ethnic Religions,20,15,22,A013,Sub-Saharan Peoples,203,C0109,Khoisan,5,7,"Africa, East and Southern",AFR,Africa,N,Y,,N,-17.65705,22.41191
AO,Angola,12962,105602,Lali,Lali,5600,5,N,ldi,Laari,4,1,Christianity,95,30,22,A013,Sub-Saharan Peoples,338,C0262,"Bantu, Central-South",2,7,"Africa, East and Southern",AFR,Africa,N,N,,N,0.316111,32.574811
AO,Angola,13068,105785,Lingala,Lingala,152000,5,N,lin,Lingala,5,1,Christianity,98,18,22,A013,Sub-Saharan Peoples,334,C0258,"Bantu, Central-Congo",11,7,"Africa, East and Southern",AFR,Africa,N,N,,N,-7.611541659,15.05385396
AO,Angola,13127,105890,Lozi,Lozi,9200,5,N,loz,Lozi,5,1,Christianity,97,12,22,A013,Sub-Saharan Peoples,349,C0273,"Bantu, Sotho-Tswana",5,7,"Africa, East and Southern",AFR,Africa,N,N,,N,-14.98874883,20.9365993
AO,Angola,13134,105899,Luba-Lulua,Luba-Lulua,78000,5,N,lua,Luba-Kasai,5,1,Christianity,84,18,22,A013,Sub-Saharan Peoples,337,C0261,"Bantu, Central-Luba",3,7,"Africa, East and Southern",AFR,Africa,N,Y,,N,-8.426416,20.73772
AO,Angola,13138,105903,Luchazi,Luchazi,681000,5,N,lch,Luchazi,5,1,Christianity,92,45,22,A013,Sub-Saharan Peoples,338,C0262,"Bantu, Central-South",3,7,"Africa, East and Southern",AFR,Africa,N,Y,,N,-13.71307,20.37763
AO,Angola,13146,105915,Luimbi,Luimbi,115000,5,N,lum,Luimbi,3,1,Christianity,60,30,22,A013,Sub-Saharan Peoples,338,C0262,"Bantu, Central-South",1,7,"Africa, East and Southern",AFR,Africa,N,Y,,N,-11.43456,17.44547
AO,Angola,13153,105926,Lunda,Lunda,377000,5,N,lun,Lunda,5,1,Christianity,94,35,22,A013,Sub-Saharan Peoples,338,C0262,"Bantu, Central-South",3,7,"Africa, East and Southern",AFR,Africa,N,Y,,N,-11.18875,22.90985
AO,Angola,13276,107155,"Lunda, Ndembu","Lunda, Ndembu",19000,5,N,lun,Lunda,5,1,Christianity,94,20,22,A013,Sub-Saharan Peoples,338,C0262,"Bantu, Central-South",1,7,"Africa, East and Southern",AFR,Africa,N,Y,,N,-11.18875,22.90985
AO,Angola,13168,105947,"Luvale, Lwena","Luvale, Lwena",357000,5,N,lue,Luvale,5,1,Christianity,97,24.708,22,A013,Sub-Saharan Peoples,338,C0262,"Bantu, Central-South",3,7,"Africa, East and Southern",AFR,Africa,N,Y,,N,-12.07916,20.12819
AO,Angola,12911,105524,"Luyana, Kwangali","Luyana, Kwangali",26000,5,N,kwn,Kwangali,5,1,Christianity,90,12,22,A013,Sub-Saharan Peoples,340,C0264,"Bantu, Central-Southwest",3,7,"Africa, East and Southern",AFR,Africa,N,Y,,N,-17.43029,19.04544
AO,Angola,13167,105946,Lwalwa,Lwalwa,26000,4,N,lwa,Lwalu,2,1,Christianity,94,5,22,A013,Sub-Saharan Peoples,337,C0261,"Bantu, Central-Luba",2,7,"Africa, East and Southern",AFR,Africa,N,Y,,N,-7.683371,21.373317
AO,Angola,13569,106380,Masi,Masi,5300,2,N,mho,Mashi,3,4,Ethnic Religions,25,0.5,22,A013,Sub-Saharan Peoples,203,C0109,Khoisan,3,7,"Africa, East and Southern",AFR,Africa,N,Y,,N,-15.95814,21.90066
AO,Angola,13617,106459,Mbangala,Mbangala,719000,2,N,mxg,Mbangala,3,4,Ethnic Religions,50,1.5,22,A013,Sub-Saharan Peoples,338,C0262,"Bantu, Central-South",1,7,"Africa, East and Southern",AFR,Africa,N,Y,,N,-9.16974,17.57672
AO,Angola,13639,106490,Mbukushu,"Mbukushu, Kusso",16000,5,N,mhw,Mbukushu,4,4,Ethnic Religions,50,17,22,A013,Sub-Saharan Peoples,338,C0262,"Bantu, Central-South",4,7,"Africa, East and Southern",AFR,Africa,N,Y,,N,-16.94924,22.48909
AO,Angola,13643,106495,Mbunda,Mbunda,341000,4,N,mck,Mbunda,5,1,Christianity,80,4,22,A013,Sub-Saharan Peoples,338,C0262,"Bantu, Central-South",2,7,"Africa, East and Southern",AFR,Africa,N,Y,,N,-14.59088,21.59839
AO,Angola,13645,106499,Mbwela,"Mbwela, Ambuella",561000,5,N,mfu,Mbwela,0,1,Christianity,80,27,22,A013,Sub-Saharan Peoples,338,C0262,"Bantu, Central-South",1,7,"Africa, East and Southern",AFR,Africa,N,Y,,N,-13.38274,18.12592
AO,Angola,21580,118384,Mpinda,Mpinda,34000,4,N,pnd,Mpinda,1,4,Ethnic Religions,20,8,22,A013,Sub-Saharan Peoples,338,C0262,"Bantu, Central-South",1,7,"Africa, East and Southern",AFR,Africa,N,Y,,N,-10.736136,13.765602
AO,Angola,13287,107167,Ndombe,Ndombe,53000,4,N,ndq,Ndombe,1,4,Ethnic Religions,40,7,22,A013,Sub-Saharan Peoples,338,C0262,"Bantu, Central-South",1,7,"Africa, East and Southern",AFR,Africa,N,Y,,N,-12.965,13.37172
AO,Angola,13339,107243,Ngandyera,Ngandyera,32000,4,N,nne,Ngandjera,1,1,Christianity,70,3,22,A013,Sub-Saharan Peoples,338,C0262,"Bantu, Central-South",1,7,"Africa, East and Southern",AFR,Africa,N,Y,,N,-16.63593,21.19282
AO,Angola,21063,117894,Ngendelengo,Ngendelengo,1400,5,N,nql,Ngendelengo,1,1,Christianity,80,25,22,A013,Sub-Saharan Peoples,338,C0262,"Bantu, Central-South",1,7,"Africa, East and Southern",AFR,Africa,N,Y,,N,-14.060956,13.174088
AO,Angola,13414,107352,Nkangala,Nkangala,55000,4,N,nkn,Nkangala,2,4,Ethnic Religions,40,5,22,A013,Sub-Saharan Peoples,338,C0262,"Bantu, Central-South",1,7,"Africa, East and Southern",AFR,Africa,N,Y,,N,-13.39491,19.02923
AO,Angola,13417,107355,Nkhumbi,Nkhumbi,748000,3,N,khu,Nkumbi,4,1,Christianity,70,0.5,22,A013,Sub-Saharan Peoples,338,C0262,"Bantu, Central-South",1,7,"Africa, East and Southern",AFR,Africa,N,Y,,N,-15.40955,14.13565
AO,Angola,14084,107538,Nyaneka,Nyaneka,1137000,4,N,nyk,Nyaneka,4,1,Christianity,90,8,22,A013,Sub-Saharan Peoples,340,C0264,"Bantu, Central-Southwest",1,7,"Africa, East and Southern",AFR,Africa,N,Y,,N,-15.96162,14.94004
AO,Angola,14092,107553,"Nyemba, Ngangela","Nyemba, Ngangela",1070000,3,N,nba,Nyemba,3,1,Christianity,85,0.2,22,A013,Sub-Saharan Peoples,340,C0264,"Bantu, Central-Southwest",2,7,"Africa, East and Southern",AFR,Africa,N,Y,,N,-15.62958,17.9972
AO,Angola,15706,110393,"Ovimbundu, Umbundu","Ovimbundu, Umbundu",7935000,5,N,umb,Umbundu,5,1,Christianity,96.6,26.955,22,A013,Sub-Saharan Peoples,340,C0264,"Bantu, Central-Southwest",2,7,"Africa, East and Southern",AFR,Africa,N,Y,,N,-12.93443,14.51821
AO,Angola,14449,108129,Portuguese,"Portuguese, Branco",2151000,3,N,por,Portuguese,5,1,Christianity,95,0.4,12,A003,Eurasian Peoples,271,C0182,"Portuguese, European",46,7,"Africa, East and Southern",AFR,Africa,N,N,,N,-9.32801086,13.25726522
AO,Angola,10598,115249,"Pygmy, Bakwe","Pygmy, Bakwe",25000,4,N,kng,Koongo,5,4,Ethnic Religions,25,5,22,A013,Sub-Saharan Peoples,273,C0184,Pygmy,1,7,"Africa, East and Southern",AFR,Africa,N,Y,,N,-6.079649843,14.29157694
AO,Angola,14604,108462,Ruund,"Ruund, Northern Lunda",257000,5,N,rnd,Ruund,5,1,Christianity,96,20,22,A013,Sub-Saharan Peoples,337,C0261,"Bantu, Central-Luba",2,7,"Africa, East and Southern",AFR,Africa,N,N,,N,-7.31907,19.76441
AO,Angola,14093,107555,"Simaa, Nyengo","Simaa, Nyengo",26000,4,N,nye,Nyengo,1,4,Ethnic Religions,50,4,22,A013,Sub-Saharan Peoples,338,C0262,"Bantu, Central-South",1,7,"Africa, East and Southern",AFR,Africa,N,Y,,N,-17.12275,22.41077
AO,Angola,13426,106096,Simaa-Makoma,Simaa-Makoma,3900,4,N,sie,Simaa,3,4,Ethnic Religions,36,8,22,A013,Sub-Saharan Peoples,338,C0262,"Bantu, Central-South",2,7,"Africa, East and Southern",AFR,Africa,N,Y,,N,-14.201137,21.91173
AO,Angola,19052,116076,"Songo, Nsongo","Songo, Nsongo",234000,5,N,nsx,Songo,4,1,Christianity,80,17,22,A013,Sub-Saharan Peoples,338,C0262,"Bantu, Central-South",1,7,"Africa, East and Southern",AFR,Africa,N,Y,,N,-10.44121,16.76775
AO,Angola,15077,109534,Spaniard,Spaniard,15000,3,N,spa,Spanish,5,1,Christianity,95,0.1,12,A003,Eurasian Peoples,291,C0202,Spanish,50,7,"Africa, East and Southern",AFR,Africa,N,N,,N,-8.81159361,13.26042388
AO,Angola,15109,109586,Suku,Suku,39000,4,N,sub,Suku,3,1,Christianity,90,3,22,A013,Sub-Saharan Peoples,338,C0262,"Bantu, Central-South",2,7,"Africa, East and Southern",AFR,Africa,N,N,,N,-6.995230077,16.60417053
AO,Angola,13454,116051,"Vasekela Bushman, Maligo","Vasekela Bushman, Maligo",14000,2,N,vaj,Northwestern Kung,2,4,Ethnic Religions,20,2,22,A013,Sub-Saharan Peoples,203,C0109,Khoisan,3,7,"Africa, East and Southern",AFR,Africa,N,N,,N,-7.93095,15.74211
AO,Angola,15953,110931,Yaka,Yaka,522000,5,N,yaf,Yaka,3,1,Christianity,94,25,22,A013,Sub-Saharan Peoples,338,C0262,"Bantu, Central-South",2,7,"Africa, East and Southern",AFR,Africa,N,Y,,N,-6.69586,16.66277
AO,Angola,16005,111004,Yauma,Yauma,45000,4,N,yax,Yauma,3,1,Christianity,60,3,22,A013,Sub-Saharan Peoples,338,C0262,"Bantu, Central-South",2,7,"Africa, East and Southern",AFR,Africa,N,Y,,N,-14.1932,20.51199
AO,Angola,16051,111088,Yombe,Yombe,84000,4,N,yom,Yombe,4,1,Christianity,90,3,22,A013,Sub-Saharan Peoples,338,C0262,"Bantu, Central-South",3,7,"Africa, East and Southern",AFR,Africa,N,Y,,N,-4.78172,12.55489
AV,Anguilla,15741,110448,"Americans, U.S.","Americans, U.S.",300,5,N,eng,English,5,1,Christianity,85,26,18,A009,North American Peoples,109,C0011,Anglo-American,104,12,"America, North and Caribbean",NAR,North America,N,N,,N,18.23880585,-63.04013486
AV,Anguilla,13862,106882,"Antiguan, mixed","Antiguan, mixed",14000,5,N,aig,Leeward Caribbean English Creole,3,1,Christianity,92.9,36.311,18,A009,North American Peoples,330,C0254,"Afro-American, Northern",5,12,"America, North and Caribbean",NAR,North America,N,Y,,N,18.23061,-63.06438
AV,Anguilla,11140,102927,British,British,300,4,N,eng,English,5,1,Christianity,70,7,12,A003,Eurasian Peoples,110,C0012,Anglo-Celt,127,12,"America, North and Caribbean",NAR,North America,N,N,,N,18.22966,-63.04394
AV,Anguilla,19206,115066,"Chinese, general","Chinese, general",300,4,N,eng,English,5,2,Buddhism,30,5,11,A002,East Asian Peoples,161,C0065,Chinese,63,12,"America, North and Caribbean",NAR,North America,N,N,,N,18.23699727,-63.03782839
AV,Anguilla,19211,115527,"South Asian, general","South Asian, general",100,2,N,hin,Hindi,5,5,Hinduism,31,2,21,A012,South Asian Peoples,468,A012,South Asia - other,59,12,"America, North and Caribbean",NAR,North America,N,N,,N,18.219463,-63.053694
AC,Antigua and Barbuda,10348,100386,Afro-Antiguan,Afro-Antiguan,81000,5,N,eng,English,5,1,Christianity,94.9,24.627,18,A009,North American Peoples,330,C0254,"Afro-American, Northern",2,12,"America, North and Caribbean",NAR,North America,N,Y,,N,17.12797656,-61.82960437
AC,Antigua and Barbuda,15741,110448,"Americans, U.S.","Americans, U.S.",11000,5,N,eng,English,5,1,Christianity,87,38.172,18,A009,North American Peoples,109,C0011,Anglo-American,104,12,"America, North and Caribbean",NAR,North America,N,N,,N,17.10076,-61.8386
AC,Antigua and Barbuda,13862,106882,"Antiguan, mixed","Antiguan, mixed",2800,5,N,aig,Leeward Caribbean English Creole,3,1,Christianity,93,12,18,A009,North American Peoples,330,C0254,"Afro-American, Northern",5,12,"America, North and Caribbean",NAR,North America,N,Y,,N,17.0805,-61.78942
AC,Antigua and Barbuda,11140,102927,British,British,3300,4,N,eng,English,5,1,Christianity,65,6,12,A003,Eurasian Peoples,110,C0012,Anglo-Celt,127,12,"America, North and Caribbean",NAR,North America,N,N,,N,17.10076,-61.8386
AC,Antigua and Barbuda,19007,114916,Deaf,Deaf,500,3,N,xxx,Language unknown,0,1,Christianity,92.51,,26,A017,Deaf,328,C0252,Deaf,216,12,"America, North and Caribbean",NAR,North America,N,Y,,N,17.073701,-61.785655
AR,Argentina,19023,115011,Afro-Argentine,Afro-Argentine,138000,5,N,spa,Spanish,5,1,Christianity,97,12,16,A007,Latin-Caribbean Americans,329,C0253,"Afro-American, Hispanic",1,11,"America, Latin",LAM,South America,N,Y,,N,-34.63610452,-58.48223696
AR,Argentina,19024,115012,Afro-Bolivian,Afro-Bolivian,1300,5,N,spa,Spanish,5,1,Christianity,98.5,12,16,A007,Latin-Caribbean Americans,329,C0253,"Afro-American, Hispanic",2,11,"America, Latin",LAM,South America,N,N,,N,-24.838273,-65.409547
AR,Argentina,19214,115839,"West Indian, general","Afro-Caribbean, other",2900,5,N,spa,Spanish,5,1,Christianity,90,12,18,A009,North American Peoples,330,C0254,"Afro-American, Northern",2,11,"America, Latin",LAM,South America,N,N,,N,-34.67294,-58.362476
AR,Argentina,19623,115128,Afro-Paraguayan,Afro-Paraguayan,1900,4,N,spa,Spanish,5,1,Christianity,100,6,16,A007,Latin-Caribbean Americans,329,C0253,"Afro-American, Hispanic",2,11,"America, Latin",LAM,South America,N,N,,N,-27.473944,-58.828511
AR,Argentina,19624,107992,Afro-Peruvian,Afro-Peruvian,1400,4,N,spa,Spanish,5,1,Christianity,100,7,16,A007,Latin-Caribbean Americans,329,C0253,"Afro-American, Hispanic",2,11,"America, Latin",LAM,South America,N,N,,N,-34.703262,-58.373362
AR,Argentina,19626,115131,Afro-Uruguayan,Afro-Uruguayan,2400,4,N,spa,Spanish,5,1,Christianity,91,6,16,A007,Latin-Caribbean Americans,329,C0253,"Afro-American, Hispanic",2,11,"America, Latin",LAM,South America,N,N,,N,-34.449408,-58.688826
AR,Argentina,14276,107785,"Arab, Palestinian","Arab, Palestinian",1200,2,N,ajp,"Arabic, South Levantine Spoken",3,6,Islam,32,2,10,A001,Arab World,113,C0015,"Arab, Levant",25,11,"America, Latin",LAM,South America,N,N,,N,-34.159273,-58.741756
AR,Argentina,15152,109662,"Arab, Syrian","Arab, Syrian",1509000,2,N,apc,"Arabic, North Levantine Spoken",3,6,Islam,38,1.351,10,A001,Arab World,113,C0015,"Arab, Levant",38,11,"America, Latin",LAM,South America,N,N,,N,-34.996522,-58.216968
AR,Argentina,10421,100492,"Argentinian, White","Argentinian, White",36207000,5,N,spa,Spanish,5,1,Christianity,96.92,12.385,16,A007,Latin-Caribbean Americans,188,C0093,Hispanic,9,11,"America, Latin",LAM,South America,N,Y,,N,-34.68917755,-58.71279009
AR,Argentina,10429,100516,Armenian,Armenian,153000,4,N,hyw,"Armenian, Western",5,1,Christianity,90,2.5,12,A003,Eurasian Peoples,119,C0021,Armenian,56,11,"America, Latin",LAM,South America,N,N,,N,-34.8788572,-58.38182488
AR,Argentina,12863,105433,"Atacameno, Kunza",Atacameno,16000,4,N,spa,Spanish,5,1,Christianity,60,5,16,A007,Latin-Caribbean Americans,290,C0201,South American Indigenous,2,11,"America, Latin",LAM,South America,N,Y,,N,-22.825288,-67.055084
AR,Argentina,18757,101884,"Aymara, Central",Aymara,4500,3,N,ayr,"Aymara, Central",5,1,Christianity,65,1,16,A007,Latin-Caribbean Americans,125,C0027,Aymara,4,11,"America, Latin",LAM,South America,N,N,,N,-24.65331,-68.09194
AR,Argentina,11065,101833,Belarusian,Belarusian,4000,4,N,bel,Belarusian,5,1,Christianity,80,4,12,A003,Eurasian Peoples,283,C0194,"Slav, Eastern",30,11,"America, Latin",LAM,South America,N,N,,N,-34.62329125,-58.46630438
AR,Argentina,19213,115407,"Black African, general","Black African, general",16000,4,N,spa,Spanish,5,1,Christianity,75,6,22,A013,Sub-Saharan Peoples,326,C0248,"Sub-Saharan African, general",10,11,"America, Latin",LAM,South America,N,N,,N,-34.503191,-58.513852
AR,Argentina,20281,101660,"Brazilian, Black","Brazilian, Black",1700,5,N,spa,Spanish,5,1,Christianity,89,23,16,A007,Latin-Caribbean Americans,270,C0181,"Portuguese, Brazilian",2,11,"America, Latin",LAM,South America,N,N,,N,-34.536522,-58.534882
AR,Argentina,10966,101662,"Brazilian, White","Brazilian, White",44000,5,N,por,Portuguese,5,1,Christianity,90,29,16,A007,Latin-Caribbean Americans,270,C0181,"Portuguese, Brazilian",16,11,"America, Latin",LAM,South America,N,N,,N,-34.875702,-58.446992
AR,Argentina,11140,102927,British,British,9700,4,N,eng,English,5,1,Christianity,60,7,12,A003,Eurasian Peoples,110,C0012,Anglo-Celt,127,11,"America, Latin",LAM,South America,N,N,,N,-34.56025355,-58.4794935
AR,Argentina,11069,101838,Cape Verdean,Cape Verdean,15000,4,N,kea,Kabuverdianu,3,1,Christianity,98,7,22,A013,Sub-Saharan Peoples,262,C0173,"Sub-Saharan African, other",18,11,"America, Latin",LAM,South America,N,N,,N,-34.953609,-58.756308
AR,Argentina,11108,101896,Catalonian,Catalonian,203000,3,N,cat,Catalan,5,1,Christianity,96,0.7,12,A003,Eurasian Peoples,291,C0202,Spanish,10,11,"America, Latin",LAM,South America,N,N,,N,-35.348425,-57.794766
AR,Argentina,11306,102014,Chane,Chane,4900,4,N,gui,"Guarani, Eastern Bolivian",5,4,Ethnic Religions,50,8.571,16,A007,Latin-Caribbean Americans,290,C0201,South American Indigenous,1,11,"America, Latin",LAM,South America,N,Y,,N,-22.54736,-63.98651
AR,Argentina,20500,116316,Charrua,Charrua,17000,4,N,spa,Spanish,5,1,Christianity,65,6,16,A007,Latin-Caribbean Americans,290,C0201,South American Indigenous,1,11,"America, Latin",LAM,South America,N,Y,,N,-32.517564,-59.104176
AR,Argentina,11335,102113,Chilean,Chilean,212000,5,N,spa,Spanish,5,1,Christianity,89,18,16,A007,Latin-Caribbean Americans,188,C0093,Hispanic,16,11,"America, Latin",LAM,South America,N,N,,N,-34.776168,-58.632878
AR,Argentina,19206,115066,"Chinese, general","Chinese, general",79000,2,N,cmn,"Chinese, Mandarin",5,2,Buddhism,31,0.5,11,A002,East Asian Peoples,161,C0065,Chinese,63,11,"America, Latin",LAM,South America,N,N,,N,-34.71304502,-58.53419293
AR,Argentina,11369,102190,"Chorote, Eklenjuy","Chorote, Eklenjuy",900,4,N,crt,"Chorote, Iyojwa'ja",4,1,Christianity,70,8.875,16,A007,Latin-Caribbean Americans,290,C0201,South American Indigenous,1,11,"America, Latin",LAM,South America,N,Y,,N,-22.18752,-63.2305
AR,Argentina,11370,102191,"Chorote, Manjuy","Chorote, Manjuy",1800,5,N,crq,"Chorote, Iyo'wujwa",4,1,Christianity,80,14,16,A007,Latin-Caribbean Americans,290,C0201,South American Indigenous,2,11,"America, Latin",LAM,South America,N,Y,,N,-22.18416,-62.93087
AR,Argentina,11379,102213,Chulupe,Chulupe,1200,5,N,cag,Nivacle,5,4,Ethnic Religions,40,20,16,A007,Latin-Caribbean Americans,290,C0201,South American Indigenous,2,11,"America, Latin",LAM,South America,N,N,,N,-22.49553,-63.19437
AR,Argentina,20501,116317,Comechingon,Comechingon,39000,4,N,spa,Spanish,5,1,Christianity,65,5,16,A007,Latin-Caribbean Americans,290,C0201,South American Indigenous,1,11,"America, Latin",LAM,South America,N,Y,,N,-32.88143,-68.803138
AR,Argentina,11437,102315,Croat,Croat,4300,3,N,hrv,Croatian,5,1,Christianity,91,0.3,12,A003,Eurasian Peoples,284,C0195,"Slav, Southern",28,11,"America, Latin",LAM,South America,N,N,,N,-34.903727,-59.191089
AR,Argentina,11458,102346,Czech,Czech,8200,2,N,ces,Czech,5,7,Non-Religious,30,0.8,12,A003,Eurasian Peoples,285,C0196,"Slav, Western",29,11,"America, Latin",LAM,South America,N,N,,N,-34.59598762,-58.3948331
AR,Argentina,19007,114916,Deaf,Deaf,230000,3,N,aed,Argentine Sign Language,3,1,Christianity,89.28,,26,A017,Deaf,328,C0252,Deaf,216,11,"America, Latin",LAM,South America,N,Y,,N,-34.79695,-59.17984
AR,Argentina,20502,115124,Diaguita,Diaguita,74000,4,N,spa,Spanish,5,1,Christianity,70,4,16,A007,Latin-Caribbean Americans,290,C0201,South American Indigenous,2,11,"America, Latin",LAM,South America,N,Y,,N,-26.070383,-65.970151
AR,Argentina,11234,103059,French,French,17000,3,N,fra,French,5,1,Christianity,76,0.5,12,A003,Eurasian Peoples,172,C0076,French,114,11,"America, Latin",LAM,South America,N,N,,N,-34.497058,-59.601814
AR,Argentina,11810,103161,Galician,Galician,775000,3,N,glg,Galician,5,1,Christianity,96,0.3,12,A003,Eurasian Peoples,291,C0202,Spanish,6,11,"America, Latin",LAM,South America,N,N,,N,-34.48491022,-58.54911743
AR,Argentina,11871,103305,German,German,43000,4,N,deu,"German, Standard",5,1,Christianity,78,7,12,A003,Eurasian Peoples,175,C0079,Germanic,80,11,"America, Latin",LAM,South America,N,N,,N,-34.037143,-59.054415
AR,Argentina,11942,103480,Greek,Greek,42000,3,N,ell,Greek,5,1,Christianity,95,0.2,12,A003,Eurasian Peoples,178,C0082,Greek,72,11,"America, Latin",LAM,South America,N,N,,N,-34.759226,-58.952591
AR,Argentina,11355,102161,"Guarani, Ava","Guarani, Ava",24000,4,N,nhd,"Guarani, Ava",5,1,Christianity,90,10,16,A007,Latin-Caribbean Americans,258,C0168,"Hispanic American, other",3,11,"America, Latin",LAM,South America,N,Y,,N,-27.23645,-55.18889
AR,Argentina,11354,102160,"Guarani, Eastern Bolivian","Guarani, Eastern Bolivian",24000,4,N,gui,"Guarani, Eastern Bolivian",5,1,Christianity,70,4.9,16,A007,Latin-Caribbean Americans,179,C0083,Guarani,3,11,"America, Latin",LAM,South America,N,N,,N,-23.74971,-64.42292
AR,Argentina,10962,101658,"Guarani, Mbya","Guarani, Mbya",9200,4,N,gun,"Guarani, Mbya",5,1,Christianity,80,2.25,16,A007,Latin-Caribbean Americans,179,C0083,Guarani,3,11,"America, Latin",LAM,South America,N,Y,,N,-27.57259,-56.01187
AR,Argentina,20504,116318,Huarpe,Huarpe,38000,4,N,spa,Spanish,5,1,Christianity,60,5,16,A007,Latin-Caribbean Americans,290,C0201,South American Indigenous,1,11,"America, Latin",LAM,South America,N,Y,,N,-32.947294,-68.811628
AR,Argentina,12273,104096,Italian,Italian,1148000,3,N,ita,Italian,5,1,Christianity,83,1.125,12,A003,Eurasian Peoples,193,C0098,Italian,61,11,"America, Latin",LAM,South America,N,N,,N,-34.877412,-58.555196
AR,Argentina,12322,104189,Japanese,Japanese,39000,2,N,jpn,Japanese,5,4,Ethnic Religions,40,1.2,11,A002,East Asian Peoples,194,C0099,Japanese,44,11,"America, Latin",LAM,South America,N,N,,N,-34.65989871,-58.55984807
AR,Argentina,15080,109538,"Jew, Spanish-speaking","Jew, Spanish-speaking",177000,1,Y,spa,Spanish,5,4,Ethnic Religions,0.21,0.21,15,A006,Jews,197,C0102,Jews,16,11,"America, Latin",LAM,South America,N,Y,4,N,-34.52268596,-58.7487892
AR,Argentina,12432,104432,Kaiwa,Kaiwa,600,5,N,kgk,Kaiwa,4,1,Christianity,70,35,16,A007,Latin-Caribbean Americans,179,C0083,Guarani,2,11,"America, Latin",LAM,South America,N,N,,N,-26.61543,-54.34188
AR,Argentina,20505,116319,Kolla,Kolla,72000,4,N,spa,Spanish,5,1,Christianity,65,4,16,A007,Latin-Caribbean Americans,274,C0185,Quechua,1,11,"America, Latin",LAM,South America,N,Y,,N,-23.974695,-64.957757
AR,Argentina,12795,105225,Korean,Korean,33000,5,N,kor,Korean,5,1,Christianity,80,30,11,A002,East Asian Peoples,205,C0111,Korean,50,11,"America, Latin",LAM,South America,N,N,,N,-34.71807278,-58.28280496
AR,Argentina,12989,105643,Lao,Lao,2000,2,N,lao,Lao,5,2,Buddhism,10,0.8,20,A011,Southeast Asian Peoples,210,C0116,Lao,11,11,"America, Latin",LAM,South America,N,N,,N,-27.38913747,-55.91225169
AR,Argentina,20506,116320,Lule,Lule,4100,4,N,spa,Spanish,5,1,Christianity,55,3,16,A007,Latin-Caribbean Americans,290,C0201,South American Indigenous,1,11,"America, Latin",LAM,South America,N,Y,,N,-27.462336,-59.001134
AR,Argentina,20507,116321,Maimara,Maimara,2100,4,N,spa,Spanish,5,1,Christianity,60,5,16,A007,Latin-Caribbean Americans,290,C0201,South American Indigenous,1,11,"America, Latin",LAM,South America,N,Y,,N,-23.624559,-65.408726
AR,Argentina,13526,106296,Mapuche,"Mapuche, Araucanian",135000,4,N,arn,Mapudungun,4,1,Christianity,80,4,16,A007,Latin-Caribbean Americans,290,C0201,South American Indigenous,2,11,"America, Latin",LAM,South America,N,N,,N,-39.47971,-70.41878
AR,Argentina,13677,106548,Mennonites,Mennonite,4200,5,N,pdt,Plautdietsch,5,1,Christianity,94,35,12,A003,Eurasian Peoples,175,C0079,Germanic,12,11,"America, Latin",LAM,South America,N,N,,N,-37.631154,-63.650129
AR,Argentina,13756,106697,Mocovi,Mocovi,26000,4,N,moc,Mocovi,4,1,Christianity,60,10,16,A007,Latin-Caribbean Americans,290,C0201,South American Indigenous,1,11,"America, Latin",LAM,South America,N,Y,,N,-28.1755,-60.44291
AR,Argentina,19006,114911,"Native Criollo, Mestizo","Native Argentine, Mestizo",1817000,5,N,spa,Spanish,5,1,Christianity,95,12.385,16,A007,Latin-Caribbean Americans,188,C0093,Hispanic,7,11,"America, Latin",LAM,South America,N,Y,,N,-27.48838185,-58.78859264
AR,Argentina,20508,116322,Omaguaca,Omaguaca,7700,4,N,spa,Spanish,5,1,Christianity,60,4,16,A007,Latin-Caribbean Americans,290,C0201,South American Indigenous,1,11,"America, Latin",LAM,South America,N,Y,,N,-23.576885,-65.393374
AR,Argentina,20509,116323,Ona,Ona,3100,4,N,spa,Spanish,5,1,Christianity,70,4,16,A007,Latin-Caribbean Americans,290,C0201,South American Indigenous,1,11,"America, Latin",LAM,South America,N,Y,,N,-53.867112,-69.297214
AR,Argentina,20510,116324,Pampa,Pampa,24000,4,N,spa,Spanish,5,1,Christianity,65,3,16,A007,Latin-Caribbean Americans,290,C0201,South American Indigenous,1,11,"America, Latin",LAM,South America,N,Y,,N,-34.472753,-58.675347
AR,Argentina,14312,107877,"Paraguayan, Guarani-speaking","Paraguayan, Guarani-speaking",610000,4,N,gug,"Guarani, Paraguayan",5,1,Christianity,90,10,16,A007,Latin-Caribbean Americans,179,C0083,Guarani,4,11,"America, Latin",LAM,South America,N,N,,N,-27.3991318,-55.92652231
AR,Argentina,14373,107993,Peruvian,Peruvian,174000,5,N,spa,Spanish,5,1,Christianity,96,14,16,A007,Latin-Caribbean Americans,188,C0093,Hispanic,14,11,"America, Latin",LAM,South America,N,N,,N,-34.531541,-58.733517
AR,Argentina,14391,108030,Pilaga Toba,Pilaga Toba,5800,5,N,plg,Pilaga,4,1,Christianity,90,45,16,A007,Latin-Caribbean Americans,290,C0201,South American Indigenous,2,11,"America, Latin",LAM,South America,N,Y,,N,-24.87574,-60.23159
AR,Argentina,14431,108096,Polish,Polish,203000,3,N,pol,Polish,5,1,Christianity,90,0.5,12,A003,Eurasian Peoples,285,C0196,"Slav, Western",45,11,"America, Latin",LAM,South America,N,N,,N,-33.462279,-59.052197
AR,Argentina,14449,108129,Portuguese,Portuguese,15000,4,N,por,Portuguese,5,1,Christianity,93,7,12,A003,Eurasian Peoples,271,C0182,"Portuguese, European",46,11,"America, Latin",LAM,South America,N,N,,N,-34.66549324,-58.56843241
AR,Argentina,14504,108239,"Quechua, Northwest Jujuy","Quechua, Northwest Jujuy",2100,4,N,quh,"Quechua, South Bolivian",5,1,Christianity,94,10,16,A007,Latin-Caribbean Americans,274,C0185,Quechua,1,11,"America, Latin",LAM,South America,N,Y,,N,-22.72085433,-65.69488568
AR,Argentina,14502,108236,Quechua,"Quechua, South Bolivian",83000,4,N,quh,"Quechua, South Bolivian",5,1,Christianity,98.849,4,16,A007,Latin-Caribbean Americans,274,C0185,Quechua,4,11,"America, Latin",LAM,South America,N,N,,N,-22.40074179,-66.22230352
AR,Argentina,20511,116325,Querandi,Querandi,4100,4,N,spa,Spanish,5,1,Christianity,65,4,16,A007,Latin-Caribbean Americans,290,C0201,South American Indigenous,1,11,"America, Latin",LAM,South America,N,Y,,N,-36.17314,-66.723102
AR,Argentina,14744,108678,"Quichua, Santiago del Estero","Quichua, Santiago del Estero",65000,3,N,qus,"Quichua, Santiago del Estero",3,1,Christianity,94,0.4,16,A007,Latin-Caribbean Americans,274,C0185,Quechua,1,11,"America, Latin",LAM,South America,N,Y,,N,-27.75079,-63.21644
AR,Argentina,20512,116326,Rankulche,Rankulche,17000,4,N,spa,Spanish,5,1,Christianity,70,4,16,A007,Latin-Caribbean Americans,290,C0201,South American Indigenous,1,11,"America, Latin",LAM,South America,N,Y,,N,-36.427225,-65.061296
AR,Argentina,14567,108394,"Romani, Vlax","Romani, Vlax",61000,3,N,rmy,"Romani, Vlax",5,1,Christianity,80,2,12,A003,Eurasian Peoples,354,C0279,Romani,30,11,"America, Latin",LAM,South America,N,N,,N,-34.72885842,-58.39231263
AR,Argentina,14571,108398,Romanian,Romanian,17000,4,N,ron,Romanian,5,1,Christianity,84,7,12,A003,Eurasian Peoples,276,C0187,Romanian,41,11,"America, Latin",LAM,South America,N,N,,N,-34.81885,-58.758481
AR,Argentina,14598,108452,Russian,Russian,32000,3,N,rus,Russian,5,1,Christianity,70,0.4,12,A003,Eurasian Peoples,283,C0194,"Slav, Eastern",71,11,"America, Latin",LAM,South America,N,N,,N,-34.55951877,-58.47424663
AR,Argentina,20513,116327,Sanaviron,Sanaviron,3200,4,N,spa,Spanish,5,1,Christianity,70,3,16,A007,Latin-Caribbean Americans,290,C0201,South American Indigenous,1,11,"America, Latin",LAM,South America,N,Y,,N,-31.139796,-64.233033
AR,Argentina,14864,108856,Serb,Serb,6500,3,N,srp,Serbian,5,1,Christianity,85,0.2,12,A003,Eurasian Peoples,284,C0195,"Slav, Southern",40,11,"America, Latin",LAM,South America,N,N,,N,-34.62384369,-58.45166677
AR,Argentina,14962,109354,Slovak,Slovak,9400,5,N,slk,Slovak,5,1,Christianity,80,12,12,A003,Eurasian Peoples,285,C0196,"Slav, Western",28,11,"America, Latin",LAM,South America,N,N,,N,-34.62514619,-58.45296927
AR,Argentina,14964,109357,Slovene,Slovene,12000,3,N,slv,Slovene,5,1,Christianity,95,0.3,12,A003,Eurasian Peoples,284,C0195,"Slav, Southern",17,11,"America, Latin",LAM,South America,N,N,,N,-34.62254119,-58.45557428
AR,Argentina,15077,109534,Spaniard,Spaniard,604000,3,N,spa,Spanish,5,1,Christianity,95,0.2,12,A003,Eurasian Peoples,291,C0202,Spanish,50,11,"America, Latin",LAM,South America,N,N,,N,-34.63191,-59.488
AR,Argentina,15265,109843,Tapiete,"Tapiete, Guarayo",600,5,N,tpj,Nandeva,3,1,Christianity,80,16,16,A007,Latin-Caribbean Americans,290,C0201,South American Indigenous,3,11,"America, Latin",LAM,South America,N,Y,,N,-22.57862,-63.64065
AR,Argentina,15319,109920,Tehuelche,"Tehuelche, Aoniken",31000,3,N,arn,Mapudungun,4,1,Christianity,90,0.4,16,A007,Latin-Caribbean Americans,290,C0201,South American Indigenous,1,11,"America, Latin",LAM,South America,N,Y,,N,-47.6214,-68.25845
AR,Argentina,15517,110108,Toba Qom,Toba Qom,141000,5,N,tob,Toba,5,1,Christianity,95,50,16,A007,Latin-Caribbean Americans,290,C0201,South American Indigenous,2,11,"America, Latin",LAM,South America,N,Y,,N,-26.37823,-59.09333
AR,Argentina,22317,,Tonocote,Tonocote,4800,3,N,qus,"Quichua, Santiago del Estero",3,1,Christianity,70,0.8,16,A007,Latin-Caribbean Americans,274,C0185,Quechua,1,11,"America, Latin",LAM,South America,N,Y,,N,-27.93,-64.08
AR,Argentina,18274,113818,Turk,Turk,800,1,Y,tur,Turkish,5,6,Islam,0,0,24,A015,Turkic Peoples,309,C0221,Turkish,68,11,"America, Latin",LAM,South America,N,N,1,Y,-34.747146,-58.687017
AR,Argentina,15696,110376,Ukrainian,Ukrainian,32000,4,N,ukr,Ukrainian,5,1,Christianity,80,4,12,A003,Eurasian Peoples,283,C0194,"Slav, Eastern",50,11,"America, Latin",LAM,South America,N,N,,N,-34.61993619,-58.46599429
AR,Argentina,15739,110441,"Uruguayan, White","Uruguayan, White",128000,4,N,spa,Spanish,5,1,Christianity,71,3,16,A007,Latin-Caribbean Americans,188,C0093,Hispanic,6,11,"America, Latin",LAM,South America,N,N,,N,-34.63191,-59.48712
AR,Argentina,15780,110534,Vejoz Mataco,Vejoz Mataco,47000,4,N,wlv,Wichi Lhamtes Vejoz,4,1,Christianity,85,8,16,A007,Latin-Caribbean Americans,290,C0201,South American Indigenous,1,11,"America, Latin",LAM,South America,N,Y,,N,-24.32999,-62.13909
AR,Argentina,15791,110564,Vilela,Vilela,600,3,N,tob,Toba,5,1,Christianity,80,1,16,A007,Latin-Caribbean Americans,290,C0201,South American Indigenous,1,11,"America, Latin",LAM,South America,N,Y,,N,-27.40293,-58.96414
AR,Argentina,13961,107372,"Weenhayek, Wichi Lhames Nocten","Weenhayek, Wichi Lhames Nocten",47000,4,N,mtp,Weenhayek,4,1,Christianity,80,10,16,A007,Latin-Caribbean Americans,290,C0201,South American Indigenous,2,11,"America, Latin",LAM,South America,N,Y,,N,-22.30975,-63.89222
AR,Argentina,15905,110743,Welsh,Welsh,5000,4,N,cym,Welsh,5,1,Christianity,60,8,12,A003,Eurasian Peoples,110,C0012,Anglo-Celt,7,11,"America, Latin",LAM,South America,N,N,,N,-44.6338,-68.13615
AR,Argentina,14392,108031,"Wichi, Mataco","Wichi, Pilcomayo Mataco",45000,5,N,mzh,Wichi Lhamtes Guisnay,5,1,Christianity,70,28,16,A007,Latin-Caribbean Americans,290,C0201,South American Indigenous,2,11,"America, Latin",LAM,South America,N,Y,,N,-23.0414,-62.26324
AM,Armenia,10429,100516,Armenian,Armenian,2680000,5,N,hye,Armenian,5,1,Christianity,96,10.109,12,A003,Eurasian Peoples,119,C0021,Armenian,56,5,"Asia, Central",EUR,Europe,N,Y,,N,40.28995,44.93408
AM,Armenia,10464,100574,Assyrian,Assyrian,15000,3,N,aii,Assyrian Neo-Aramaic,5,1,Christianity,88,0.4,10,A001,Arab World,121,C0023,Assyrian / Aramaic,23,5,"Asia, Central",EUR,Europe,N,N,,N,39.81558,44.78522
AM,Armenia,10528,100675,Azerbaijani,Azerbaijani,15000,1,Y,azj,"Azerbaijani, North",5,6,Islam,0,0,24,A015,Turkic Peoples,126,C0028,Azerbaijani,20,5,"Asia, Central",EUR,Europe,N,N,1,Y,40.38793,45.54902
AM,Armenia,11065,101833,Belarusian,Belarusian,900,2,N,bel,Belarusian,5,1,Christianity,50,1.8,12,A003,Eurasian Peoples,283,C0194,"Slav, Eastern",30,5,"Asia, Central",EUR,Europe,N,N,,N,40.714277,43.909442
AM,Armenia,19007,114916,Deaf,Deaf,15000,3,N,aen,Armenian Sign Language,3,1,Christianity,94.43,,26,A017,Deaf,328,C0252,Deaf,216,5,"Asia, Central",EUR,Europe,N,Y,,N,40.10023,44.47668
AM,Armenia,11234,103059,French,French,150000,3,N,fra,French,5,1,Christianity,65,1,12,A003,Eurasian Peoples,172,C0076,French,114,5,"Asia, Central",EUR,Europe,N,N,,N,40,44.5
AM,Armenia,11865,103298,Georgian,Georgian,600,3,N,kat,Georgian,5,1,Christianity,78,0.8,12,A003,Eurasian Peoples,157,C0061,Caucasus,26,5,"Asia, Central",EUR,Europe,N,N,,N,41.161586,44.626523
AM,Armenia,11942,103480,Greek,Greek,900,3,N,ell,Greek,5,1,Christianity,90,0.5,12,A003,Eurasian Peoples,178,C0082,Greek,72,5,"Asia, Central",EUR,Europe,N,N,,N,40.089311,44.334254
AM,Armenia,12877,105458,"Kurd, Kurmanji","Kurd, Kurmanji",2200,1,Y,kmr,"Kurdish, Northern",5,6,Islam,0.5,0.5,14,A005,Persian-Median,208,C0114,Kurd,33,5,"Asia, Central",EUR,Europe,N,Y,1,N,40.45396,43.75905
AM,Armenia,13775,106730,Moldavian,Moldavian,600,4,N,ron,Romanian,5,1,Christianity,82,4.7,12,A003,Eurasian Peoples,276,C0187,Romanian,22,5,"Asia, Central",EUR,Europe,N,N,,N,40.199352,44.526667
AM,Armenia,13809,106791,Mordvinian,Mordvinian,500,3,N,myv,Erzya,4,1,Christianity,60,2,12,A003,Eurasian Peoples,169,C0073,Finno-Ugric,10,5,"Asia, Central",EUR,Europe,N,N,,N,40.168,44.52
AM,Armenia,10430,100517,"Romani, Armenian Bosha","Romani, Armenian Bosha",50,4,N,rmi,Lomavren,0,1,Christianity,50,4,12,A003,Eurasian Peoples,354,C0279,Romani,1,5,"Asia, Central",EUR,Europe,N,Y,,N,39.9024,44.86378
AM,Armenia,14571,108398,Romanian,Romanian,600,4,N,ron,Romanian,5,1,Christianity,84,7.5,12,A003,Eurasian Peoples,276,C0187,Romanian,41,5,"Asia, Central",EUR,Europe,N,N,,N,40.184964,44.545028
AM,Armenia,14598,108452,Russian,Russian,12000,3,N,rus,Russian,5,1,Christianity,62,0.8,12,A003,Eurasian Peoples,283,C0194,"Slav, Eastern",71,5,"Asia, Central",EUR,Europe,N,N,,N,40.857887,44.113293
AM,Armenia,15284,109874,Tatar,Tatar,500,1,Y,tat,Tatar,5,6,Islam,1.5,0,24,A015,Turkic Peoples,311,C0223,Ural-Siberian,22,5,"Asia, Central",EUR,Europe,N,N,1,N,40.836098,45.106639
AM,Armenia,15684,110360,Udin,Udin,200,3,N,udi,Udi,0,1,Christianity,90,2,12,A003,Eurasian Peoples,157,C0061,Caucasus,6,5,"Asia, Central",EUR,Europe,N,N,,N,40.134717,44.51774
AM,Armenia,15696,110376,Ukrainian,Ukrainian,1200,4,N,ukr,Ukrainian,5,1,Christianity,78.8,5,12,A003,Eurasian Peoples,283,C0194,"Slav, Eastern",50,5,"Asia, Central",EUR,Europe,N,N,,N,40.722562,45.247545
AM,Armenia,20455,116305,Yazidi,Yazidi,36000,1,Y,kmr,"Kurdish, Northern",5,4,Ethnic Religions,0,0,14,A005,Persian-Median,208,C0114,Kurd,10,5,"Asia, Central",EUR,Europe,N,N,1,Y,40.233333,44.25
AA,Aruba,15741,110448,"Americans, U.S.","Americans, U.S.",600,5,N,eng,English,5,1,Christianity,80,31,18,A009,North American Peoples,109,C0011,Anglo-American,104,12,"America, North and Caribbean",NAR,North America,N,N,,N,12.524893,-70.016286
AA,Aruba,10350,100390,"Antillean Creole, Papiamentu","Antillean Creole, Papiamentu",86000,4,N,pap,Papiamentu,5,1,Christianity,98.7,9.925,16,A007,Latin-Caribbean Americans,331,C0255,"Afro-Caribbean, Dutch",5,12,"America, North and Caribbean",NAR,North America,N,Y,,N,12.50784,-69.96951
AA,Aruba,19007,114916,Deaf,Deaf,800,3,N,xxx,Language unknown,0,1,Christianity,92.93,,26,A017,Deaf,328,C0252,Deaf,216,12,"America, North and Caribbean",NAR,North America,N,Y,,N,12.5145,-69.98502
AA,Aruba,11659,102787,Dutch,Dutch,4400,4,N,nld,Dutch,5,7,Non-Religious,45,2.702,12,A003,Eurasian Peoples,175,C0079,Germanic,29,12,"America, North and Caribbean",NAR,North America,N,Y,,N,12.5249,-69.97633
AA,Aruba,15175,109692,"Filipino, Tagalog","Filipino, Tagalog",900,4,N,tgl,Tagalog,5,1,Christianity,93,8,17,A008,Malay Peoples,166,C0070,"Filipino, Central",55,12,"America, North and Caribbean",NAR,North America,N,N,,N,12.5299,-70.018415
AA,Aruba,12035,103642,Haitian,Haitian,1200,5,N,hat,Haitian Creole,5,1,Christianity,95,15,16,A007,Latin-Caribbean Americans,332,C0256,"Afro-Caribbean, Francophone",14,12,"America, North and Caribbean",NAR,North America,N,N,,N,12.533245,-70.037693
AA,Aruba,12051,103686,"Han Chinese, Mandarin","Han Chinese, Mandarin",900,4,N,cmn,"Chinese, Mandarin",5,4,Ethnic Religions,22,5,11,A002,East Asian Peoples,161,C0065,Chinese,53,12,"America, North and Caribbean",NAR,North America,N,N,,N,12.532358,-70.03003
AA,Aruba,12316,104168,Jamaicans,Jamaican,600,5,N,jam,Jamaican English Creole,4,1,Christianity,82,28,18,A009,North American Peoples,330,C0254,"Afro-American, Northern",14,12,"America, North and Caribbean",NAR,North America,N,N,,N,12.534573,-70.02045
AA,Aruba,19209,116292,"Latin American, general","Latin American, general",12000,5,N,spa,Spanish,5,1,Christianity,98,10.913,16,A007,Latin-Caribbean Americans,258,C0168,"Hispanic American, other",14,12,"America, North and Caribbean",NAR,North America,N,N,,N,12.51924356,-70.02252669
AS,Australia,10134,100025,Aboriginal Creole,Aboriginal Creole,7400,5,N,rop,Kriol,5,1,Christianity,90,30,19,A010,Pacific Islanders,100,C0001,Australian Aboriginal,1,1,Australia and Pacific,AUS,Australia,N,Y,,N,-18.135,137.669
AS,Australia,11539,102536,"Aboriginal, Detribalized","Aboriginal, Detribalized",539000,5,N,eng,English,5,1,Christianity,80,22,19,A010,Pacific Islanders,100,C0001,Australian Aboriginal,1,1,Australia and Pacific,AUS,Australia,N,Y,,N,-26.2925,132.1283
AS,Australia,18874,114780,"Aboriginal, Southwest","Aboriginal, Southwest",10000,5,N,eng,English,5,1,Christianity,95,27,19,A010,Pacific Islanders,100,C0001,Australian Aboriginal,1,1,Australia and Pacific,AUS,Australia,N,Y,,N,-31.89877953,115.9061192
AS,Australia,20718,100080,Adnyamathanha,Adnyamathanha,200,4,N,eng,English,5,1,Christianity,70,3,19,A010,Pacific Islanders,100,C0001,Australian Aboriginal,1,1,Australia and Pacific,AUS,Australia,N,Y,,N,-30.581052,138.979477
AS,Australia,19314,115238,"Afghani, general","Afghani, general",27000,1,Y,prs,Dari,5,6,Islam,0,0,21,A012,South Asian Peoples,463,A012,South Asia Muslim - Pashtun,11,1,Australia and Pacific,AUS,Australia,N,N,1,Y,-37.807867,144.951575
AS,Australia,10168,100093,Afrikaner,Afrikaner,69000,5,N,afr,Afrikaans,5,1,Christianity,94,45,12,A003,Eurasian Peoples,175,C0079,Germanic,15,1,Australia and Pacific,AUS,Australia,N,N,,N,-32.902739,149.782181
AS,Australia,19207,115689,"Albanian, general","Albanian, general",39000,2,N,als,"Albanian, Tosk",5,1,Christianity,45,0.6,12,A003,Eurasian Peoples,106,C0008,Albanian,7,1,Australia and Pacific,AUS,Australia,N,N,,N,-33.744347,151.073894
AS,Australia,10259,100242,Alyawarra,Alyawarra,1600,5,N,aly,Alyawarr,3,1,Christianity,90,40,19,A010,Pacific Islanders,100,C0001,Australian Aboriginal,1,1,Australia and Pacific,AUS,Australia,N,Y,,N,-21.04266,136.83489
AS,Australia,15741,110448,"Americans, U.S.","Americans, U.S.",111000,5,N,eng,English,5,1,Christianity,87,31,18,A009,North American Peoples,109,C0011,Anglo-American,104,1,Australia and Pacific,AUS,Australia,N,N,,N,-33.8674,151.207114
AS,Australia,10294,100293,"Amhara, Ethiopian","Amhara, Ethiopian",7000,3,N,amh,Amharic,5,1,Christianity,92,2,13,A004,Horn of Africa Peoples,164,C0068,Ethio-Semitic,24,1,Australia and Pacific,AUS,Australia,N,N,,N,-37.744,144.95
AS,Australia,10311,100329,Andilyaugwa,Andilyaugwa,1500,5,N,aoi,Anindilyakwa,3,1,Christianity,70,40,19,A010,Pacific Islanders,100,C0001,Australian Aboriginal,1,1,Australia and Pacific,AUS,Australia,N,Y,,N,-13.99904,136.6415
AS,Australia,10326,100354,Anglo-Australian,Anglo-Australian,17709000,5,N,eng,English,5,1,Christianity,69.48,16,12,A003,Eurasian Peoples,110,C0012,Anglo-Celt,25,1,Australia and Pacific,AUS,Australia,N,Y,,N,-35.35317886,149.2330581
AS,Australia,10328,100356,Anglo-Canadian,Anglo-Canadian,42000,4,N,eng,English,5,1,Christianity,78,10,12,A003,Eurasian Peoples,110,C0012,Anglo-Celt,21,1,Australia and Pacific,AUS,Australia,N,N,,N,-33.922327,151.16081
AS,Australia,10329,100357,Anglo-New Zealander,Anglo-New Zealander,570000,5,N,eng,English,5,1,Christianity,65,21,12,A003,Eurasian Peoples,110,C0012,Anglo-Celt,13,1,Australia and Pacific,AUS,Australia,N,N,,N,-33.75466652,151.0065395
AS,Australia,10330,100358,Anglo-Romani,Anglo-Romani,6600,5,N,rme,Angloromani,3,1,Christianity,70,50,12,A003,Eurasian Peoples,354,C0279,Romani,4,1,Australia and Pacific,AUS,Australia,N,N,,N,-33.1842,116.26259
AS,Australia,15007,109436,Anglo-South African,Anglo-South African,103000,5,N,eng,English,5,1,Christianity,85,18,12,A003,Eurasian Peoples,110,C0012,Anglo-Celt,5,1,Australia and Pacific,AUS,Australia,N,N,,N,-32.902916,149.781917
AS,Australia,10334,100367,Anmatjirra,Anmatjirra,700,5,N,amx,Anmatyerre,3,1,Christianity,70,25,19,A010,Pacific Islanders,100,C0001,Australian Aboriginal,1,1,Australia and Pacific,AUS,Australia,N,Y,,N,-22.22145,133.30669
AS,Australia,11722,102879,"Arab, Egyptian","Arab, Egyptian",49000,4,N,arz,"Arabic, Egyptian Spoken",4,6,Islam,30,4,10,A001,Arab World,163,C0067,Egyptian,34,1,Australia and Pacific,AUS,Australia,N,N,,N,-31.9554,115.85859
AS,Australia,19204,115690,"Arab, general","Arab, general",71000,1,Y,acm,"Arabic, Mesopotamian Spoken",4,6,Islam,0.5,0.3,10,A001,Arab World,324,C0237,"Arab World, general",8,1,Australia and Pacific,AUS,Australia,N,N,1,N,-33.8678,151.2078
AS,Australia,12247,104056,"Arab, Iraqi","Arab, Iraqi",71000,1,Y,acm,"Arabic, Mesopotamian Spoken",4,6,Islam,4,1,10,A001,Arab World,113,C0015,"Arab, Levant",24,1,Australia and Pacific,AUS,Australia,N,N,1,N,-37.812986,144.886962
AS,Australia,15104,109571,"Arab, Sudanese","Arab, Sudanese",37000,2,N,apd,"Arabic, Sudanese Spoken",4,6,Islam,11,0.5,10,A001,Arab World,117,C0019,"Arab, Sudan",18,1,Australia and Pacific,AUS,Australia,N,N,,N,-37.767235,144.96448
AS,Australia,15154,109667,"Arab, Syro-Lebanese","Arab, Syro-Lebanese",83000,2,N,ajp,"Arabic, South Levantine Spoken",3,6,Islam,36,1.3,10,A001,Arab World,113,C0015,"Arab, Levant",1,1,Australia and Pacific,AUS,Australia,N,N,,N,-33.8672,151.207114
AS,Australia,15355,110769,"Aranda, Western","Aranda, Western",500,5,N,are,"Arrarnta, Western",5,1,Christianity,70,12,19,A010,Pacific Islanders,100,C0001,Australian Aboriginal,1,1,Australia and Pacific,AUS,Australia,N,Y,,N,-23.9178,133.1826
AS,Australia,10429,100516,Armenian,Armenian,46000,5,N,hyw,"Armenian, Western",5,1,Christianity,90,30.598,12,A003,Eurasian Peoples,119,C0021,Armenian,56,1,Australia and Pacific,AUS,Australia,N,N,,N,-33.8677,151.2077
AS,Australia,11683,102827,"Arrernte, Eastern","Arrernte, Eastern",3000,2,N,aer,"Arrernte, Eastern",4,4,Ethnic Religions,40,2,19,A010,Pacific Islanders,100,C0001,Australian Aboriginal,1,1,Australia and Pacific,AUS,Australia,N,Y,,N,-23.35801,135.0487
AS,Australia,10464,100574,Assyrian,Assyrian,29000,4,N,aii,Assyrian Neo-Aramaic,5,1,Christianity,88,4,10,A001,Arab World,121,C0023,Assyrian / Aramaic,23,1,Australia and Pacific,AUS,Australia,N,N,,N,-33.882135,151.072065
AS,Australia,10491,100626,"Austrian, Bavarian","Austrian, Bavarian",26000,3,N,bar,Bavarian,5,1,Christianity,85,0.3,12,A003,Eurasian Peoples,175,C0079,Germanic,20,1,Australia and Pacific,AUS,Australia,N,N,,N,-33.881076,151.174596
AS,Australia,10530,100680,Baadi,"Baadi, Bard",300,4,N,bcj,Bardi,0,4,Ethnic Religions,40,10,19,A010,Pacific Islanders,100,C0001,Australian Aboriginal,1,1,Australia and Pacific,AUS,Australia,N,Y,,N,-16.61194,122.90546
AS,Australia,20720,116334,Bandjalang,Bandjalang,100,4,N,bdy,Bandjalang,0,1,Christianity,72,4,19,A010,Pacific Islanders,100,C0001,Australian Aboriginal,1,1,Australia and Pacific,AUS,Australia,N,Y,,N,-28.390496,152.611481
AS,Australia,11065,101833,Belarusian,Belarusian,6500,4,N,bel,Belarusian,5,1,Christianity,67,3.8,12,A003,Eurasian Peoples,283,C0194,"Slav, Eastern",30,1,Australia and Pacific,AUS,Australia,N,N,,N,-33.850363,150.770462
AS,Australia,10953,101629,Bosniak,Bosniak,35000,1,Y,bos,Bosnian,5,6,Islam,0.5,0.3,12,A003,Eurasian Peoples,284,C0195,"Slav, Southern",24,1,Australia and Pacific,AUS,Australia,N,N,1,N,-33.928568,151.19899
AS,Australia,11140,102927,British,British,1011000,4,N,eng,English,5,1,Christianity,72,9,12,A003,Eurasian Peoples,110,C0012,Anglo-Celt,127,1,Australia and Pacific,AUS,Australia,N,N,,N,-34.92577,138.599732
AS,Australia,10998,101722,Bulgarian,Bulgarian,12000,3,N,bul,Bulgarian,5,1,Christianity,72,1.1,12,A003,Eurasian Peoples,284,C0195,"Slav, Southern",42,1,Australia and Pacific,AUS,Australia,N,N,,N,-34.92298177,138.6031405
AS,Australia,20719,101742,Bunaba,Bunaba,40,3,N,bck,Bunuba,0,1,Christianity,75,2,19,A010,Pacific Islanders,100,C0001,Australian Aboriginal,1,1,Australia and Pacific,AUS,Australia,N,Y,,N,-18.192775,125.565676
AS,Australia,11026,101767,Burera,Burera,1100,5,N,bvr,Burarra,4,1,Christianity,55,21,19,A010,Pacific Islanders,100,C0001,Australian Aboriginal,1,1,Australia and Pacific,AUS,Australia,N,Y,,N,-12.28718,134.31561
AS,Australia,11029,101776,Burmese,Burmese,13000,1,Y,mya,Burmese,5,2,Buddhism,0.35,0.07,23,A014,Tibetan-Himalayan Peoples,154,C0058,Burmese,18,1,Australia and Pacific,AUS,Australia,N,N,1,N,-37.893995,144.626576
AS,Australia,15799,110577,Cebuano,Cebuano,5700,5,N,ceb,Cebuano,5,1,Christianity,99,15,17,A008,Malay Peoples,166,C0070,"Filipino, Central",5,1,Australia and Pacific,AUS,Australia,N,N,,N,-33.889973,151.15915
AS,Australia,11335,102113,Chilean,Chilean,33000,5,N,spa,Spanish,5,1,Christianity,85,17,16,A007,Latin-Caribbean Americans,188,C0093,Hispanic,16,1,Australia and Pacific,AUS,Australia,N,N,,N,-33.914841,151.15394
AS,Australia,12037,103648,"Chin, Hakha","Chin, Hakha",5000,5,N,cnh,"Chin, Hakha",5,1,Christianity,80,25,23,A014,Tibetan-Himalayan Peoples,207,C0113,Kuki-Chin-Lushai,2,1,Australia and Pacific,AUS,Australia,N,N,,N,-37.8,145.07
AS,Australia,11415,102284,Cook Islands Maori,Cook Islands Maori,5300,5,N,rar,Cook Islands Maori,5,1,Christianity,90,11,19,A010,Pacific Islanders,269,C0180,Polynesian,4,1,Australia and Pacific,AUS,Australia,N,N,,N,-33.92,151.2
AS,Australia,11437,102315,Croat,Croat,72000,3,N,hrv,Croatian,5,1,Christianity,91,0.7,12,A003,Eurasian Peoples,284,C0195,"Slav, Southern",28,1,Australia and Pacific,AUS,Australia,N,N,,N,-32.85761468,149.9733358
AS,Australia,11456,102344,"Cypriots, Greek","Cypriots, Greek",27000,3,N,ell,Greek,5,1,Christianity,93,0.7,12,A003,Eurasian Peoples,178,C0082,Greek,6,1,Australia and Pacific,AUS,Australia,N,N,,N,-33.884441,151.14741
AS,Australia,11458,102346,Czech,Czech,24000,2,N,ces,Czech,5,7,Non-Religious,28,0.9,12,A003,Eurasian Peoples,285,C0196,"Slav, Western",29,1,Australia and Pacific,AUS,Australia,N,N,,N,-35.32645668,149.1306929
AS,Australia,11496,102439,Danish,Danish,6000,4,N,dan,Danish,5,1,Christianity,75,3,12,A003,Eurasian Peoples,279,C0190,Scandinavian,20,1,Australia and Pacific,AUS,Australia,N,N,,N,-37.712,145.02
AS,Australia,20721,102483,Dayi,Dayi,80,4,N,dax,Dayi,0,1,Christianity,78,4,19,A010,Pacific Islanders,100,C0001,Australian Aboriginal,1,1,Australia and Pacific,AUS,Australia,N,Y,,N,-12.025614,135.56648
AS,Australia,19007,114916,Deaf,Deaf,52000,3,N,asf,Auslan,3,1,Christianity,69.5,,26,A017,Deaf,328,C0252,Deaf,216,1,Australia and Pacific,AUS,Australia,N,Y,,N,-33.91159742,151.1808794
AS,Australia,18815,114563,"Detribalized, PNG","Detribalized, PNG",33000,5,N,tpi,Tok Pisin,5,1,Christianity,96,20,19,A010,Pacific Islanders,244,C0152,New Guinea,2,1,Australia and Pacific,AUS,Australia,N,N,,N,-33.890103,151.181176
AS,Australia,11543,102559,Dhangu,Dhangu,200,5,N,dhg,Dhangu-Djangu,3,4,Ethnic Religions,35,20,19,A010,Pacific Islanders,100,C0001,Australian Aboriginal,1,1,Australia and Pacific,AUS,Australia,N,Y,,N,-11.91093,135.80843
AS,Australia,20971,116968,Dhuwal,Dhuwal,300,4,N,dwu,Dhuwal,1,1,Christianity,60,10,19,A010,Pacific Islanders,100,C0001,Australian Aboriginal,1,1,Australia and Pacific,AUS,Australia,N,Y,,N,-14.826832,135.031477
AS,Australia,20992,102591,Dhuwaya,Dhuwaya,500,5,N,dwy,Dhuwaya,3,1,Christianity,80,12,19,A010,Pacific Islanders,100,C0001,Australian Aboriginal,1,1,Australia and Pacific,AUS,Australia,N,Y,,N,-12.255,136.8912
AS,Australia,11574,102638,Djambarrapuyngu,Djambarrapuyngu,4400,5,N,djr,Djambarrpuyngu,4,4,Ethnic Religions,25,25,19,A010,Pacific Islanders,100,C0001,Australian Aboriginal,1,1,Australia and Pacific,AUS,Australia,N,Y,,N,-12.02098,135.59014
AS,Australia,20722,102639,Djamindjung,Djamindjung,30,4,N,djd,Djamindjung,0,1,Christianity,80,6,19,A010,Pacific Islanders,100,C0001,Australian Aboriginal,1,1,Australia and Pacific,AUS,Australia,N,Y,,N,-15.407832,130.142319
AS,Australia,11577,102645,Djeebbana,"Djeebbana, Gunavidji",200,4,N,djj,Djeebbana,2,1,Christianity,50,10,19,A010,Pacific Islanders,100,C0001,Australian Aboriginal,1,1,Australia and Pacific,AUS,Australia,N,Y,,N,-12.02861,134.10939
AS,Australia,11578,102647,Djinang,Djinang,100,5,N,dji,Djinang,3,4,Ethnic Religions,30,20,19,A010,Pacific Islanders,100,C0001,Australian Aboriginal,1,1,Australia and Pacific,AUS,Australia,N,Y,,N,-12.47145,134.84589
AS,Australia,11579,102648,Djinba,Djinba,70,4,N,djb,Djinba,1,4,Ethnic Religions,30,10,19,A010,Pacific Islanders,100,C0001,Australian Aboriginal,1,1,Australia and Pacific,AUS,Australia,N,Y,,N,-12.95169,134.9219
AS,Australia,11659,102787,Dutch,Dutch,74000,4,N,nld,Dutch,5,7,Non-Religious,44,3.9,12,A003,Eurasian Peoples,175,C0079,Germanic,29,1,Australia and Pacific,AUS,Australia,N,N,,N,-33.8674,151.2074
AS,Australia,11157,102954,Estonian,Estonian,1900,4,N,ekk,"Estonian, Standard",5,7,Non-Religious,45,5,12,A003,Eurasian Peoples,169,C0073,Finno-Ugric,23,1,Australia and Pacific,AUS,Australia,N,N,,N,-33.8676,151.2076
AS,Australia,11200,103015,Fijian,Fijian,65000,5,N,fij,Fijian,5,1,Christianity,99,28,19,A010,Pacific Islanders,165,C0069,Fiji,7,1,Australia and Pacific,AUS,Australia,N,N,,N,-33.95122,151.216558
AS,Australia,11201,103016,Fijian Hindi,Fijian Hindi,2800,4,N,hif,"Hindi, Fiji",4,5,Hinduism,30,10,19,A010,Pacific Islanders,165,C0069,Fiji,3,1,Australia and Pacific,AUS,Australia,N,N,,N,-37.85,145.25
AS,Australia,15175,109692,"Filipino, Tagalog","Filipino, Tagalog",313000,5,N,tgl,Tagalog,5,1,Christianity,98,14,17,A008,Malay Peoples,166,C0070,"Filipino, Central",55,1,Australia and Pacific,AUS,Australia,N,N,,N,-33.8673,151.207114
AS,Australia,11205,103021,Finnish,Finnish,11000,5,N,fin,Finnish,5,1,Christianity,87,12,12,A003,Eurasian Peoples,169,C0073,Finno-Ugric,17,1,Australia and Pacific,AUS,Australia,N,N,,N,-33.8811709,151.192294
AS,Australia,11234,103059,French,French,25000,3,N,fra,French,5,1,Christianity,76,0.5,12,A003,Eurasian Peoples,172,C0076,French,114,1,Australia and Pacific,AUS,Australia,N,N,,N,-37.81425,144.96318
AS,Australia,11801,103144,Gaididj,Gaididj,100,5,N,gbb,Kaytetye,1,4,Ethnic Religions,45,45,19,A010,Pacific Islanders,100,C0001,Australian Aboriginal,1,1,Australia and Pacific,AUS,Australia,N,Y,,N,-21.50813,133.71023
AS,Australia,11824,103226,Garawa,Garawa,100,5,N,wrk,Garrwa,3,4,Ethnic Religions,40,15,19,A010,Pacific Islanders,100,C0001,Australian Aboriginal,1,1,Australia and Pacific,AUS,Australia,N,Y,,N,-17.20783,137.63048
AS,Australia,11871,103305,German,German,112000,4,N,deu,"German, Standard",5,1,Christianity,78,8,12,A003,Eurasian Peoples,175,C0079,Germanic,80,1,Australia and Pacific,AUS,Australia,N,N,,N,-35.2312707,149.0688049
AS,Australia,16842,104844,Goanese,Goanese,2600,5,N,gom,"Konkani, Goan",5,1,Christianity,95,18,21,A012,South Asian Peoples,404,A012,South Asia Christian,8,1,Australia and Pacific,AUS,Australia,N,N,,N,-33.894017,151.110515
AS,Australia,20723,103571,Gooniyandi,Gooniyandi,100,3,N,gni,Gooniyandi,0,1,Christianity,65,1,19,A010,Pacific Islanders,100,C0001,Australian Aboriginal,1,1,Australia and Pacific,AUS,Australia,N,Y,,N,-18.292466,125.586752
AS,Australia,11942,103480,Greek,Greek,105000,3,N,ell,Greek,5,1,Christianity,95,1.2,12,A003,Eurasian Peoples,178,C0082,Greek,72,1,Australia and Pacific,AUS,Australia,N,N,,N,-34.92577,138.6
AS,Australia,20724,103531,Gugubera,Gugubera,10,3,N,kkp,Koko-Bera,0,1,Christianity,74,2,19,A010,Pacific Islanders,100,C0001,Australian Aboriginal,1,1,Australia and Pacific,AUS,Australia,N,Y,,N,-15.471598,141.743976
AS,Australia,20621,103533,Guguyimidjir,Guguyimidjir,800,4,N,kky,Guugu Yimidhirr,3,4,Ethnic Religions,35,6,19,A010,Pacific Islanders,100,C0001,Australian Aboriginal,1,1,Australia and Pacific,AUS,Australia,N,Y,,N,-15.297183,145.113757
AS,Australia,11982,103544,Gujarati,Gujarati,55000,1,Y,guj,Gujarati,5,5,Hinduism,2,0,21,A012,South Asian Peoples,442,A012,South Asia Hindu - other,29,1,Australia and Pacific,AUS,Australia,N,N,1,N,-37.71,144.79
AS,Australia,11991,103559,Gumatj,Gumatj,100,4,N,gnn,Gumatj,4,4,Ethnic Religions,20,10,19,A010,Pacific Islanders,100,C0001,Australian Aboriginal,1,1,Australia and Pacific,AUS,Australia,N,Y,,N,-12.25534,136.82386
AS,Australia,11998,103573,Gunwinggu,Gunwinggu,1800,5,N,gup,Gunwinggu,4,1,Christianity,70,20,19,A010,Pacific Islanders,100,C0001,Australian Aboriginal,1,1,Australia and Pacific,AUS,Australia,N,Y,,N,-12.33983,133.35778
AS,Australia,11999,103575,Gupapuyngu,"Gupapuyngu, Gobabingo",300,5,N,guf,Gupapuyngu,3,1,Christianity,65,15,19,A010,Pacific Islanders,100,C0001,Australian Aboriginal,1,1,Australia and Pacific,AUS,Australia,N,Y,,N,-12.19272,135.32979
AS,Australia,21564,118381,Guragone,Guragone,50,4,N,gge,Gurr-goni,1,4,Ethnic Religions,45,10,19,A010,Pacific Islanders,100,C0001,Australian Aboriginal,1,1,Australia and Pacific,AUS,Australia,N,Y,,N,-12.298,134.262
AS,Australia,20991,117710,Gurindji Kriol,Gurindji Kriol,1100,4,N,gjr,Gurindji Kriol,1,1,Christianity,75,8,19,A010,Pacific Islanders,100,C0001,Australian Aboriginal,1,1,Australia and Pacific,AUS,Australia,N,Y,,N,-17.4378,130.8316
AS,Australia,12003,103586,Gurinji,Gurinji,400,5,N,gue,Gurindji,3,4,Ethnic Religions,40,20,19,A010,Pacific Islanders,100,C0001,Australian Aboriginal,1,1,Australia and Pacific,AUS,Australia,N,Y,,N,-17.0598,130.36509
AS,Australia,12057,103701,"Han Chinese, Cantonese","Han Chinese, Cantonese",284000,5,N,yue,"Chinese, Yue",5,7,Non-Religious,19,12.418,11,A002,East Asian Peoples,161,C0065,Chinese,36,1,Australia and Pacific,AUS,Australia,N,N,,N,-33.873693,151.206982
AS,Australia,12054,103691,"Han Chinese, Hakka","Han Chinese, Hakka",9100,5,N,hak,"Chinese, Hakka",5,2,Buddhism,12,12,11,A002,East Asian Peoples,161,C0065,Chinese,23,1,Australia and Pacific,AUS,Australia,N,N,,N,-34.045391,150.877976
AS,Australia,12051,103686,"Han Chinese, Mandarin","Han Chinese, Mandarin",604000,5,N,cmn,"Chinese, Mandarin",5,7,Non-Religious,12,12,11,A002,East Asian Peoples,161,C0065,Chinese,53,1,Australia and Pacific,AUS,Australia,N,N,,N,-27.46233833,153.0362995
AS,Australia,11344,102140,"Han Chinese, Min Nan","Han Chinese, Min Nan",18000,4,N,nan,"Chinese, Min Nan",5,4,Ethnic Religions,11,7,11,A002,East Asian Peoples,161,C0065,Chinese,18,1,Australia and Pacific,AUS,Australia,N,N,,N,-33.89,151.09
AS,Australia,11345,102143,"Han Chinese, Wu","Han Chinese, Wu",3400,4,N,wuu,"Chinese, Wu",5,4,Ethnic Religions,14,9,11,A002,East Asian Peoples,161,C0065,Chinese,10,1,Australia and Pacific,AUS,Australia,N,N,,N,-37.73,144.95
AS,Australia,12076,103743,Hazara,Hazara,23000,1,Y,haz,Hazaragi,3,6,Islam,0.03,0.03,14,A005,Persian-Median,268,C0179,Persian,8,1,Australia and Pacific,AUS,Australia,N,N,1,Y,-27.633275,153.127326
AS,Australia,18495,114106,Hmong Njua,Hmong Njua,2200,1,Y,hnj,Hmong Njua,5,4,Ethnic Religions,4,2,20,A011,Southeast Asian Peoples,230,C0138,Miao / Hmong,10,1,Australia and Pacific,AUS,Australia,N,N,1,N,-35.33088,149.156133
AS,Australia,12155,103918,Hungarian,Hungarian,29000,4,N,hun,Hungarian,5,1,Christianity,85,10,12,A003,Eurasian Peoples,189,C0094,Hungarian,30,1,Australia and Pacific,AUS,Australia,N,N,,N,-32.8312,150.139008
AS,Australia,12161,103926,"Hutu, Rundi","Hutu, Rundi",3800,5,N,run,Rundi,5,1,Christianity,93.95,28,22,A013,Sub-Saharan Peoples,336,C0260,"Bantu, Central-Lakes",9,1,Australia and Pacific,AUS,Australia,N,N,,N,-33.875151,151.153507
AS,Australia,12189,103963,Igbo,Igbo,2100,5,N,ibo,Igbo,5,1,Christianity,96,45,22,A013,Sub-Saharan Peoples,190,C0095,Igbo,9,1,Australia and Pacific,AUS,Australia,N,N,,N,-33.86,151.07
AS,Australia,18503,114115,Indonesian,Indonesian,77000,4,N,ind,Indonesian,5,6,Islam,8,4,17,A008,Malay Peoples,215,C0123,Malay,18,1,Australia and Pacific,AUS,Australia,N,N,,N,-36.5588,145.468994
AS,Australia,12256,104068,Irish,Irish,79000,5,N,eng,English,5,1,Christianity,93,28.249,12,A003,Eurasian Peoples,110,C0012,Anglo-Celt,13,1,Australia and Pacific,AUS,Australia,N,N,,N,-32.831,150.1391
AS,Australia,12273,104096,Italian,Italian,180000,3,N,ita,Italian,5,1,Christianity,78,1.2,12,A003,Eurasian Peoples,193,C0098,Italian,61,1,Australia and Pacific,AUS,Australia,N,N,,N,-33.867139,151.2074
AS,Australia,12296,104125,Iwaidja,"Iwaidja, Ibadjo",100,4,N,ibd,Iwaidja,3,4,Ethnic Religions,6.98,6.98,19,A010,Pacific Islanders,100,C0001,Australian Aboriginal,1,1,Australia and Pacific,AUS,Australia,N,Y,,N,-11.51794,132.58238
AS,Australia,12322,104189,Japanese,Japanese,37000,1,Y,jpn,Japanese,5,2,Buddhism,5,1.6,11,A002,East Asian Peoples,194,C0099,Japanese,44,1,Australia and Pacific,AUS,Australia,N,N,1,N,-33.867139,151.2073
AS,Australia,11576,102642,Jaru,Jaru,200,4,N,ddj,Jaru,0,4,Ethnic Religions,14.88,6,19,A010,Pacific Islanders,100,C0001,Australian Aboriginal,1,1,Australia and Pacific,AUS,Australia,N,Y,,N,-18.11152,128.53978
AS,Australia,17000,112316,Javanese,Javanese,13000,4,N,jav,Javanese,5,6,Islam,14,7,17,A008,Malay Peoples,196,C0101,Java,9,1,Australia and Pacific,AUS,Australia,N,N,,N,-21.15331389,149.1782509
AS,Australia,12347,117322,"Jew, English-speaking","Jew, English-speaking",119000,1,Y,eng,English,5,4,Ethnic Religions,1,0.015,15,A006,Jews,197,C0102,Jews,12,1,Australia and Pacific,AUS,Australia,N,N,2,N,-33.867139,151.2072
AS,Australia,14881,108886,"Karen, S'gaw","Karen, S'gaw",9600,5,N,ksw,"Karen, S'gaw",5,1,Christianity,53,35,23,A014,Tibetan-Himalayan Peoples,200,C0106,Karen,4,1,Australia and Pacific,AUS,Australia,N,N,,N,-33.889973,151.15915
AS,Australia,12662,104946,Khmer,Khmer,36000,1,Y,khm,Khmer,5,2,Buddhism,5,1.4,20,A011,Southeast Asian Peoples,239,C0147,Mon-Khmer,13,1,Australia and Pacific,AUS,Australia,N,N,1,N,-37.954,145.146
AS,Australia,12725,105057,Kitja,Kitja,200,5,N,gia,Kija,3,4,Ethnic Religions,45,45,19,A010,Pacific Islanders,100,C0001,Australian Aboriginal,1,1,Australia and Pacific,AUS,Australia,N,Y,,N,-17.49287,127.42663
AS,Australia,12795,105225,Korean,Korean,113000,5,N,kor,Korean,5,1,Christianity,55,25,11,A002,East Asian Peoples,205,C0111,Korean,50,1,Australia and Pacific,AUS,Australia,N,N,,N,-33.93077092,151.1078872
AS,Australia,11244,105310,Krio,"Krio, Creole",3700,4,N,kri,Krio,5,1,Christianity,45,5,22,A013,Sub-Saharan Peoples,262,C0173,"Sub-Saharan African, other",7,1,Australia and Pacific,AUS,Australia,N,N,,N,-33.882749,151.184511
AS,Australia,11268,105359,Kukatja,Kukatja,100,2,N,kux,Kukatja,3,4,Ethnic Religions,40,2,19,A010,Pacific Islanders,100,C0001,Australian Aboriginal,1,1,Australia and Pacific,AUS,Australia,N,Y,,N,-20.29658,127.70093
AS,Australia,11974,103532,Kuku-Yalanji,Kuku-Yalanji,300,5,N,gvn,Kuku-Yalanji,4,1,Christianity,50,20,19,A010,Pacific Islanders,100,C0001,Australian Aboriginal,1,1,Australia and Pacific,AUS,Australia,N,Y,,N,-16.04554,145.16704
AS,Australia,21563,105390,Kumbainggar,Kumbainggar,90,4,N,kgs,Kumbainggar,1,4,Ethnic Religions,40,5,19,A010,Pacific Islanders,100,C0001,Australian Aboriginal,1,1,Australia and Pacific,AUS,Australia,N,Y,,N,-29.67174,152.9384
AS,Australia,11994,103566,Kunbarlang,Kunbarlang,20,5,N,gup,Gunwinggu,4,4,Ethnic Religions,30,30,19,A010,Pacific Islanders,100,C0001,Australian Aboriginal,1,1,Australia and Pacific,AUS,Australia,N,Y,,N,-11.92057,133.7584
AS,Australia,12861,105428,Kunjen,Kunjen,500,5,N,kjn,Kunjen,3,1,Christianity,60,40,19,A010,Pacific Islanders,100,C0001,Australian Aboriginal,1,1,Australia and Pacific,AUS,Australia,N,Y,,N,-16.64843,143.53215
AS,Australia,12877,105458,"Kurd, Kurmanji","Kurd, Kurmanji",4600,1,Y,kmr,"Kurdish, Northern",5,6,Islam,1,0.7,14,A005,Persian-Median,208,C0114,Kurd,33,1,Australia and Pacific,AUS,Australia,N,N,1,N,-37.81426,144.963169
AS,Australia,12893,105496,Kuuku-Yau,Kuuku-Yau,20,5,N,tcs,Torres Strait Creole,4,1,Christianity,50,50,19,A010,Pacific Islanders,100,C0001,Australian Aboriginal,1,1,Australia and Pacific,AUS,Australia,N,Y,,N,-12.5081,143.11383
AS,Australia,12989,105643,Lao,Lao,12000,1,Y,lao,Lao,5,2,Buddhism,3.5,1.9,20,A011,Southeast Asian Peoples,210,C0116,Lao,11,1,Australia and Pacific,AUS,Australia,N,N,1,N,-35.328804,149.140125
AS,Australia,13007,105674,Latvian,Latvian,9300,5,N,lvs,"Latvian, Standard",5,1,Christianity,99,50,12,A003,Eurasian Peoples,130,C0032,Baltic,22,1,Australia and Pacific,AUS,Australia,N,N,,N,-37.81425,144.9632
AS,Australia,13077,105803,Lithuanian,Lithuanian,13000,3,N,eng,English,5,1,Christianity,80,1.3,12,A003,Eurasian Peoples,130,C0032,Baltic,25,1,Australia and Pacific,AUS,Australia,N,N,,N,-32.902836,149.781725
AS,Australia,14021,107449,Mabuiag,Mabuiag,1000,5,N,mwp,Kala Lagaw Ya,4,1,Christianity,67,30,19,A010,Pacific Islanders,100,C0001,Australian Aboriginal,1,1,Australia and Pacific,AUS,Australia,N,Y,,N,-9.951723,142.183763
AS,Australia,13186,105968,Macedonian,Macedonian,62000,3,N,mkd,Macedonian,5,1,Christianity,91,0.5,12,A003,Eurasian Peoples,284,C0195,"Slav, Southern",29,1,Australia and Pacific,AUS,Australia,N,N,,N,-37.81428,144.963169
AS,Australia,13437,106144,Malay,Malay,179000,1,Y,zlm,Malay,5,6,Islam,0.3,0.25,17,A008,Malay Peoples,215,C0123,Malay,24,1,Australia and Pacific,AUS,Australia,N,N,4,N,-37.81425,144.96319
AS,Australia,11399,102252,"Malay, Cocos Islands","Malay, Cocos Islands",1300,1,Y,coa,"Malay, Cocos Islands",1,6,Islam,0,0,17,A008,Malay Peoples,215,C0123,Malay,4,1,Australia and Pacific,AUS,Australia,N,N,1,Y,-10.492947,105.629265
AS,Australia,13460,106188,Maltese,Maltese,62000,3,N,mlt,Maltese,5,1,Christianity,100,0.5,12,A003,Eurasian Peoples,221,C0129,Maltese,8,1,Australia and Pacific,AUS,Australia,N,N,,N,-32.831001,150.139
AS,Australia,13483,106221,Mandeaen,Mandaean,4200,1,Y,mid,Mandaic,0,8,Other / Small,0,0,10,A001,Arab World,121,C0023,Assyrian / Aramaic,6,1,Australia and Pacific,AUS,Australia,N,N,1,Y,-35.170346,149.13318
AS,Australia,13522,106291,Maori,Maori,45000,5,N,mri,Maori,5,1,Christianity,70,26,19,A010,Pacific Islanders,269,C0180,Polynesian,3,1,Australia and Pacific,AUS,Australia,N,N,,N,-27.46052132,153.030148
AS,Australia,13556,106359,Martu Wangka,Martu Wangka,1100,5,N,mpj,Martu Wangka,3,1,Christianity,60,30,19,A010,Pacific Islanders,100,C0001,Australian Aboriginal,1,1,Australia and Pacific,AUS,Australia,N,Y,,N,-24.30166,122.02575
AS,Australia,13591,106413,Maung,"Maung, Managari",400,5,N,mph,Maung,3,1,Christianity,70,20,19,A010,Pacific Islanders,100,C0001,Australian Aboriginal,1,1,Australia and Pacific,AUS,Australia,N,Y,,N,-11.81584,133.19816
AS,Australia,12213,103998,Mauritian,Mauritian,25000,5,N,mfe,Morisyen,4,1,Christianity,51,18,21,A012,South Asian Peoples,468,A012,South Asia - other,10,1,Australia and Pacific,AUS,Australia,N,N,,N,-33.904821,151.167667
AS,Australia,13734,106661,Miriam,"Miriam, Mer",200,5,N,ulk,Meriam Mir,3,1,Christianity,67,30,19,A010,Pacific Islanders,244,C0152,New Guinea,1,1,Australia and Pacific,AUS,Australia,N,Y,,N,-9.91044,144.05763
AS,Australia,20725,106664,Miriwung,Miriwung,200,4,N,mep,Miriwoong,0,1,Christianity,80,3,19,A010,Pacific Islanders,100,C0001,Australian Aboriginal,1,1,Australia and Pacific,AUS,Australia,N,Y,,N,-15.776437,128.742644
AS,Australia,18605,114225,"Mongol, Khalka","Mongol, Khalka",2200,1,Y,khk,"Mongolian, Halh",5,4,Ethnic Religions,0,0,11,A002,East Asian Peoples,238,C0146,Mongolian,12,1,Australia and Pacific,AUS,Australia,N,N,1,Y,-33.79,151.11
AS,Australia,13885,106924,Murinbata,Murinbata,2000,4,N,mwf,Murrinh-Patha,3,1,Christianity,75,5,19,A010,Pacific Islanders,100,C0001,Australian Aboriginal,1,1,Australia and Pacific,AUS,Australia,N,Y,,N,-14.74852,129.70152
AS,Australia,13924,107034,Nakara,Nakara,60,4,N,nck,Na-kara,0,4,Ethnic Religions,40,10,19,A010,Pacific Islanders,100,C0001,Australian Aboriginal,1,1,Australia and Pacific,AUS,Australia,N,Y,,N,-12.07449,134.29963
AS,Australia,13947,107076,Nangikurrunggurr,Nangikurrunggurr,30,2,N,nam,Ngan'gityemerri,0,4,Ethnic Religions,40,1,19,A010,Pacific Islanders,100,C0001,Australian Aboriginal,1,1,Australia and Pacific,AUS,Australia,N,Y,,N,-14.26697,131.16512
AS,Australia,20726,116333,Narrinyeri,Narrinyeri,200,4,N,eng,English,5,1,Christianity,66,4,19,A010,Pacific Islanders,100,C0001,Australian Aboriginal,1,1,Australia and Pacific,AUS,Australia,N,Y,,N,-35.507855,139.132181
AS,Australia,13316,107203,Neo-Melanesian Papuan,Neo-Melanesian Papuan,29000,5,N,tpi,Tok Pisin,5,1,Christianity,95,25,19,A010,Pacific Islanders,244,C0152,New Guinea,4,1,Australia and Pacific,AUS,Australia,N,N,,N,-19.28715551,146.7738657
AS,Australia,13317,107204,Nepalese,"Nepali, general",133000,1,Y,npi,Nepali,5,5,Hinduism,2,1.5,21,A012,South Asian Peoples,442,A012,South Asia Hindu - other,10,1,Australia and Pacific,AUS,Australia,N,N,3,N,-33.86,151.17
AS,Australia,13333,107234,Ngalkbun,Ngalkbun,10,4,N,gup,Gunwinggu,4,4,Ethnic Religions,7,4,19,A010,Pacific Islanders,100,C0001,Australian Aboriginal,1,1,Australia and Pacific,AUS,Australia,N,Y,,N,-13.78231,133.98152
AS,Australia,13340,107245,Ngarinman,"Ngarinman, Hainman",50,4,N,nbj,Ngarinyman,0,4,Ethnic Religions,16,7,19,A010,Pacific Islanders,100,C0001,Australian Aboriginal,1,1,Australia and Pacific,AUS,Australia,N,Y,,N,-15.50219,130.64996
