ROG3,Ctry,PeopleID3,ROP3,PeopNameAcrossCountries,PeopNameInCountry,Population,JPScale,LeastReached,ROL3,PrimaryLanguageName,BibleStatus,RLG3,PrimaryReligion,PercentAdherents,PercentEvangelical,PeopleID1,ROP1,AffinityBloc,PeopleID2,ROP2,PeopleCluster,CountOfCountries,RegionCode,RegionName,ROG2,Continent,10_40Window,IndigenousCode,WorkersNeeded,Frontier,Latitude,Longitude
AF,Afghanistan,14372,107989,"Afghan, Tajik","Afghan, Tajik",11388000,1,Y,prs,Dari,5,6,Islam,0.01,0.01,14,A005,Persian-Median,299,C0211,Tajik,3,5,"Asia, Central",ASI,Asia,Y,Y,228,Y,31.15621,62.14612
AF,Afghanistan,19409,100096,Afshari,Afshari,15000,1,Y,azb,"Azerbaijani, South",5,6,Islam,0.039,0.039,24,A015,Turkic Peoples,126,C0028,Azerbaijani,2,5,"Asia, Central",ASI,Asia,Y,N,1,Y,34.44796,69.28976
AF,Afghanistan,21454,118270,Aimaq,Aimaq,1670000,1,Y,aiq,Aimaq,1,6,Islam,0,0,14,A005,Persian-Median,268,C0179,Persian,5,5,"Asia, Central",ASI,Asia,Y,Y,33,Y,35.00501,63.128594
AF,Afghanistan,16221,111334,Ansari,Ansari,2500,1,Y,urd,Urdu,5,6,Islam,0,0,21,A012,South Asian Peoples,452,A012,South Asia Muslim - Ansari,6,5,"Asia, Central",ASI,Asia,Y,N,1,Y,34.54777,69.3198
AF,Afghanistan,15202,109734,"Arab, Tajiki","Arab, Tajiki",18000,1,Y,abh,"Arabic, Tajiki Spoken",1,6,Islam,0.2,0.2,10,A001,Arab World,324,C0237,"Arab World, general",2,5,"Asia, Central",ASI,Asia,Y,N,1,N,36.9447,66.80422
AF,Afghanistan,16239,111360,Arora (Hindu traditions),Arora (Hindu traditions),1600,1,Y,skr,Saraiki,3,5,Hinduism,0,0,21,A012,South Asian Peoples,442,A012,South Asia Hindu - other,3,5,"Asia, Central",ASI,Asia,Y,N,1,Y,36.187213,70.980606
AF,Afghanistan,10528,100675,Azerbaijani,Azerbaijani,13000,1,Y,azj,"Azerbaijani, North",5,6,Islam,0,0,24,A015,Turkic Peoples,126,C0028,Azerbaijani,20,5,"Asia, Central",ASI,Asia,Y,N,1,Y,34.4501,69.61334
AF,Afghanistan,15356,110770,"Baloch, Western","Baloch, Western",489000,1,Y,bgn,"Balochi, Western",3,6,Islam,0.009,0.009,21,A012,South Asian Peoples,455,A012,Baloch,4,5,"Asia, Central",ASI,Asia,Y,Y,10,Y,30.24139,63.20176
AF,Afghanistan,19423,115168,Bania (Muslim traditions),Bania (Muslim traditions),6700,1,Y,urd,Urdu,5,6,Islam,0.23,0.2,21,A012,South Asian Peoples,462,A012,South Asia Muslim - other,1,5,"Asia, Central",ASI,Asia,Y,N,1,N,34.375787,69.435276
AF,Afghanistan,16521,111696,Brahmin,Brahmin,3900,1,Y,urd,Urdu,5,5,Hinduism,0,0,21,A012,South Asian Peoples,417,A012,South Asia Forward Caste - Brahmin,6,5,"Asia, Central",ASI,Asia,Y,N,1,Y,34.294237,69.392519
AF,Afghanistan,10959,101653,Brahui,Brahui,338000,1,Y,brh,Brahui,4,6,Islam,0.101,0.1,21,A012,South Asian Peoples,456,A012,Brahui,4,5,"Asia, Central",ASI,Asia,Y,Y,7,N,30.0908,64.73688
AF,Afghanistan,16585,111780,Changgar,Changgar,3200,1,Y,urd,Urdu,5,6,Islam,0,0,21,A012,South Asian Peoples,462,A012,South Asia Muslim - other,3,5,"Asia, Central",ASI,Asia,Y,N,1,Y,34.470761,69.633613
AF,Afghanistan,11510,102467,Darwazi,"Darwazi, Badakhshani",17000,1,Y,prs,Dari,5,6,Islam,0,0,14,A005,Persian-Median,299,C0211,Tajik,1,5,"Asia, Central",ASI,Asia,Y,Y,1,Y,38.05962,70.72609
AF,Afghanistan,19007,114916,Deaf,Deaf,407000,1,Y,afg,Afghan Sign Language,1,6,Islam,0.05,,26,A017,Deaf,328,C0252,Deaf,216,5,"Asia, Central",ASI,Asia,Y,Y,8,Y,34.5325,69.136606
AF,Afghanistan,12741,105087,"Garwi, Kohistani","Garwi, Kohistani",2000,1,Y,gwc,Gawri,3,6,Islam,0,0,21,A012,South Asian Peoples,462,A012,South Asia Muslim - other,1,5,"Asia, Central",ASI,Asia,Y,Y,1,Y,35.01213209,71.44848521
AF,Afghanistan,17549,112971,Gujar (Muslim traditions),Gujar (Muslim traditions),19000,1,Y,gju,Gujari,0,6,Islam,0.029,0.029,21,A012,South Asian Peoples,462,A012,South Asia Muslim - other,3,5,"Asia, Central",ASI,Asia,Y,Y,1,Y,35.24842,71.48793
AF,Afghanistan,12076,103743,Hazara,Hazara,3503000,1,Y,haz,Hazaragi,3,6,Islam,0.029,0.029,14,A005,Persian-Median,268,C0179,Persian,8,5,"Asia, Central",ASI,Asia,Y,Y,70,Y,34.35039,66.94109
AF,Afghanistan,20542,116135,Ishkashimi,Ishkashimi,3300,1,Y,isk,Ishkashimi,0,6,Islam,0.06,0.06,14,A005,Persian-Median,299,C0211,Tajik,2,5,"Asia, Central",ASI,Asia,Y,Y,1,Y,36.71347,71.563232
AF,Afghanistan,19437,104950,Kalash (Chitrali),Kalash (Chitrali),11000,1,Y,khw,Khowar,3,6,Islam,0,0,21,A012,South Asian Peoples,462,A012,South Asia Muslim - other,2,5,"Asia, Central",ASI,Asia,Y,N,1,Y,36.653176,70.212641
AF,Afghanistan,12526,104638,Karakalpak,Karakalpak,3400,1,Y,kaa,Karakalpak,5,6,Islam,0,0,24,A015,Turkic Peoples,202,C0108,Kazakh,8,5,"Asia, Central",ASI,Asia,Y,N,1,Y,36.66888,67.10763
AF,Afghanistan,12599,104791,Kazakh,Kazakh,3400,1,Y,kaz,Kazakh,5,6,Islam,0,0,24,A015,Turkic Peoples,202,C0108,Kazakh,25,5,"Asia, Central",ASI,Asia,Y,N,1,Y,36.69403,69.12301
AF,Afghanistan,18125,113631,Khatri (Sikh traditions),Khatri (Sikh traditions),2900,1,Y,pan,"Punjabi, Eastern",5,8,Other / Small,0,0,21,A012,South Asian Peoples,470,A012,South Asia Sikh - other,2,5,"Asia, Central",ASI,Asia,Y,N,1,Y,34.321458,69.14323
AF,Afghanistan,18693,103535,Khik (Wakhi),Khik (Wakhi),21000,1,Y,wbl,Wakhi,3,6,Islam,0,0,14,A005,Persian-Median,299,C0211,Tajik,4,5,"Asia, Central",ASI,Asia,Y,Y,1,Y,36.96537,72.85094
AF,Afghanistan,11126,101922,"Kurd, Central","Kurd, Central",4200,1,Y,ckb,"Kurdish, Central",5,6,Islam,0.009,0.009,14,A005,Persian-Median,208,C0114,Kurd,5,5,"Asia, Central",ASI,Asia,Y,N,1,Y,34.5155,69.1952
AF,Afghanistan,12933,105550,Kyrgyz,Kyrgyz,1300,1,Y,kir,Kyrgyz,5,6,Islam,0,0,24,A015,Turkic Peoples,204,C0110,Kyrgyz,14,5,"Asia, Central",ASI,Asia,Y,N,1,Y,37.06464,74.24692
AF,Afghanistan,13761,106706,Moghal,Moghal,2400,1,Y,prs,Dari,5,6,Islam,0,0,21,A012,South Asian Peoples,462,A012,South Asia Muslim - other,6,5,"Asia, Central",ASI,Asia,Y,Y,1,Y,34.23626261,62.27592178
AF,Afghanistan,13878,106912,Munji,Munji,7300,1,Y,mnj,Munji,0,6,Islam,0,0,21,A012,South Asian Peoples,462,A012,South Asia Muslim - other,1,5,"Asia, Central",ASI,Asia,Y,Y,1,Y,35.79309,70.85744
AF,Afghanistan,17714,113164,Mussali,Mussali,3400,1,Y,pan,"Punjabi, Eastern",5,6,Islam,0,0,21,A012,South Asian Peoples,462,A012,South Asia Muslim - other,3,5,"Asia, Central",ASI,Asia,Y,N,1,Y,34.422154,69.095272
AF,Afghanistan,11835,103257,"Narisati, Arandui","Narisati, Arandui",41000,1,Y,gwt,Gawar-Bati,1,6,Islam,0,0,21,A012,South Asian Peoples,462,A012,South Asia Muslim - other,1,5,"Asia, Central",ASI,Asia,Y,Y,1,Y,35.22045,71.53814
AF,Afghanistan,10453,100556,"Nuristani, Ashkuni","Nuristani, Ashkuni",51000,1,Y,ask,Ashkun,0,6,Islam,0,0,14,A005,Persian-Median,251,C0159,Nuristan,1,5,"Asia, Central",ASI,Asia,Y,Y,1,Y,35.11697,70.5923
AF,Afghanistan,11936,103472,"Nuristani, Grangali","Nuristani, Grangali",12000,1,Y,nli,Grangali,0,6,Islam,0,0,14,A005,Persian-Median,251,C0159,Nuristan,1,5,"Asia, Central",ASI,Asia,Y,Y,1,Y,34.87613,70.70943
AF,Afghanistan,12482,104545,"Nuristani, Kamviri","Nuristani, Kamviri",23000,1,Y,xvi,Kamviri,1,6,Islam,0,0,14,A005,Persian-Median,251,C0159,Nuristan,1,5,"Asia, Central",ASI,Asia,Y,Y,1,Y,35.40963,71.32342
AF,Afghanistan,13431,106126,"Nuristani, Malakhel","Nuristani, Malakhel",3400,1,Y,prs,Dari,5,6,Islam,0,0,14,A005,Persian-Median,251,C0159,Nuristan,1,5,"Asia, Central",ASI,Asia,Y,Y,1,Y,34.13174,69.01918
AF,Afghanistan,10703,101097,"Nuristani, Narisati","Nuristani, Narisati",151000,1,Y,bsh,Kati,0,6,Islam,0.101,0,14,A005,Persian-Median,251,C0159,Nuristan,2,5,"Asia, Central",ASI,Asia,Y,Y,3,N,35.48049,70.75245
AF,Afghanistan,14461,108147,"Nuristani, Prasuni","Nuristani, Prasuni",10000,1,Y,prn,Prasuni,0,6,Islam,0,0,14,A005,Persian-Median,251,C0159,Nuristan,1,5,"Asia, Central",ASI,Asia,Y,Y,1,Y,35.4495,70.92815
AF,Afghanistan,15575,110188,"Nuristani, Tregami","Nuristani, Tregami",4400,1,Y,trm,Tregami,1,6,Islam,0,0,14,A005,Persian-Median,251,C0159,Nuristan,1,5,"Asia, Central",ASI,Asia,Y,Y,1,Y,35.0073,71.11979
AF,Afghanistan,15822,110623,"Nuristani, Waigeli","Nuristani, Waigeli",33000,1,Y,wbk,Waigali,0,6,Islam,0,0,14,A005,Persian-Median,251,C0159,Nuristan,1,5,"Asia, Central",ASI,Asia,Y,Y,1,Y,35.17784,71.05953
AF,Afghanistan,15735,110432,Ormuri,Ormuri,3400,1,Y,pbt,"Pashto, Southern",3,6,Islam,0,0,21,A012,South Asian Peoples,463,A012,South Asia Muslim - Pashtun,1,5,"Asia, Central",ASI,Asia,Y,Y,1,Y,32.77482,68.91851
AF,Afghanistan,14255,107747,Pahlavani,Pahlavani,3900,1,Y,prs,Dari,5,6,Islam,0,0,14,A005,Persian-Median,268,C0179,Persian,1,5,"Asia, Central",ASI,Asia,Y,Y,1,Y,31.33334,62.19879
AF,Afghanistan,14311,107875,Parachi,Parachi,8400,1,Y,prc,Parachi,0,6,Islam,0,0,14,A005,Persian-Median,268,C0179,Persian,1,5,"Asia, Central",ASI,Asia,Y,Y,1,Y,35.07936,69.64313
AF,Afghanistan,14322,107901,Parsee,Parsee,2400,1,Y,prs,Dari,5,8,Other / Small,0,0,14,A005,Persian-Median,268,C0179,Persian,11,5,"Asia, Central",ASI,Asia,Y,Y,1,Y,34.245037,61.583604
AF,Afghanistan,14324,107906,Parya,"Parya, Laghmani",400,1,Y,paq,Parya,0,6,Islam,0,0,14,A005,Persian-Median,299,C0211,Tajik,3,5,"Asia, Central",ASI,Asia,Y,Y,1,Y,34.47933,69.89671
AF,Afghanistan,18369,113939,Pashayi,Pashayi,49000,1,Y,mvy,"Kohistani, Indus",3,6,Islam,0,0,21,A012,South Asian Peoples,462,A012,South Asia Muslim - other,2,5,"Asia, Central",ASI,Asia,Y,Y,1,Y,34.204284,69.45316
AF,Afghanistan,13996,107420,"Pashayi, Northeast","Pashayi, Northeast",96000,1,Y,aee,"Pashai, Northeast",1,6,Islam,0,0,21,A012,South Asian Peoples,462,A012,South Asia Muslim - other,1,5,"Asia, Central",ASI,Asia,Y,Y,2,Y,34.66002,70.43166
AF,Afghanistan,14042,107474,"Pashayi, Northwest","Pashayi, Northwest",100000,1,Y,glh,"Pashai, Northwest",0,6,Islam,0,0,21,A012,South Asian Peoples,462,A012,South Asia Muslim - other,1,5,"Asia, Central",ASI,Asia,Y,Y,2,Y,34.96106,70.04196
AF,Afghanistan,15025,109456,"Pashayi, Southeast","Pashayi, Southeast",572000,1,Y,psi,"Pashai, Southeast",0,6,Islam,0,0,21,A012,South Asian Peoples,462,A012,South Asia Muslim - other,1,5,"Asia, Central",ASI,Asia,Y,Y,11,Y,34.43099,70.30351
AF,Afghanistan,15072,109523,"Pashayi, Southwest","Pashayi, Southwest",126000,1,Y,psh,"Pashai, Southwest",1,6,Islam,0.009,0,21,A012,South Asian Peoples,462,A012,South Asia Muslim - other,1,5,"Asia, Central",ASI,Asia,Y,Y,3,Y,34.88104,69.77576
AF,Afghanistan,14256,107909,"Pashtun, Northern","Pashtun, Northern",2878000,1,Y,pbu,"Pashto, Northern",5,6,Islam,0.01,0.01,21,A012,South Asian Peoples,463,A012,South Asia Muslim - Pashtun,18,5,"Asia, Central",ASI,Asia,Y,Y,58,Y,33.562,68.363
AF,Afghanistan,14327,109502,"Pashtun, Southern","Pashtun, Southern",10416000,1,Y,pbt,"Pashto, Southern",3,6,Islam,0.019,0.019,21,A012,South Asian Peoples,463,A012,South Asia Muslim - Pashtun,9,5,"Asia, Central",ASI,Asia,Y,Y,208,Y,33.562,68.363
AF,Afghanistan,14371,107987,Persian,Persian,694000,1,Y,pes,"Persian, Iranian",5,6,Islam,0.119,0.1,14,A005,Persian-Median,268,C0179,Persian,43,5,"Asia, Central",ASI,Asia,Y,N,14,N,34.25821094,62.44608334
AF,Afghanistan,14483,108182,Punjabi,Punjabi,6200,1,Y,pan,"Punjabi, Eastern",5,6,Islam,1,0.3,21,A012,South Asian Peoples,462,A012,South Asia Muslim - other,18,5,"Asia, Central",ASI,Asia,Y,Y,1,N,34.1478388,71.07321336
AF,Afghanistan,15382,110802,"Punjabi, Western","Punjabi, Western",39000,1,Y,pnb,"Punjabi, Western",4,6,Islam,0.2,0.1,21,A012,South Asian Peoples,462,A012,South Asia Muslim - other,2,5,"Asia, Central",ASI,Asia,Y,Y,1,N,34.757485,70.301167
AF,Afghanistan,14498,108231,Qizilbash,Qizilbash,313000,1,Y,prs,Dari,5,6,Islam,0,0,24,A015,Turkic Peoples,309,C0221,Turkish,2,5,"Asia, Central",ASI,Asia,Y,Y,6,Y,32.364777,62.09403
AF,Afghanistan,14570,108397,"Romani, Balkan","Romani, Balkan",18000,1,Y,rmn,"Romani, Balkan",5,6,Islam,0,0,12,A003,Eurasian Peoples,354,C0279,Romani,17,5,"Asia, Central",ASI,Asia,Y,N,1,Y,34.35045528,62.15133813
AF,Afghanistan,11597,102682,"Romani, Domari","Romani, Domari",12000,1,Y,rmt,Domari,3,6,Islam,0.015,0,14,A005,Persian-Median,353,C0278,Domari,15,5,"Asia, Central",ASI,Asia,Y,N,1,Y,34.47461,69.12958
AF,Afghanistan,14727,108647,Sanglechi,Sanglechi,2900,1,Y,sgy,Sanglechi,1,6,Islam,0,0,14,A005,Persian-Median,299,C0211,Tajik,2,5,"Asia, Central",ASI,Asia,Y,Y,1,Y,36.67411,71.57368
AF,Afghanistan,14782,108746,Sau,Sau,5100,1,Y,sdg,Savi,0,6,Islam,0,0,21,A012,South Asian Peoples,462,A012,South Asia Muslim - other,1,5,"Asia, Central",ASI,Asia,Y,Y,1,Y,35.16964,71.4591
AF,Afghanistan,14921,108967,Shughni,Shughni,47000,1,Y,sgh,Shughni,3,6,Islam,0,0,14,A005,Persian-Median,299,C0211,Tajik,2,5,"Asia, Central",ASI,Asia,Y,Y,1,Y,37.59163,71.37385
AF,Afghanistan,14924,108970,Shumashti,Shumashti,1700,1,Y,sts,Shumashti,1,6,Islam,0,0,21,A012,South Asian Peoples,462,A012,South Asia Muslim - other,1,5,"Asia, Central",ASI,Asia,Y,Y,1,Y,34.74897,70.75085
AF,Afghanistan,14192,109027,Sindhi,Sindhi,25000,1,Y,snd,Sindhi,5,6,Islam,0.079,0.079,21,A012,South Asian Peoples,468,A012,South Asia - other,8,5,"Asia, Central",ASI,Asia,Y,N,1,Y,34.51736844,69.10888638
AF,Afghanistan,15253,109822,Tangshuri,Tangshuri,17000,1,Y,prs,Dari,5,6,Islam,0,0,14,A005,Persian-Median,299,C0211,Tajik,1,5,"Asia, Central",ASI,Asia,Y,Y,1,Y,38.11159,71.21229
AF,Afghanistan,15500,110076,Tirahi,Tirahi,6000,1,Y,pbt,"Pashto, Southern",3,6,Islam,0,0,21,A012,South Asian Peoples,462,A012,South Asia Muslim - other,1,5,"Asia, Central",ASI,Asia,Y,Y,1,Y,31.81734,66.46972
AF,Afghanistan,18274,113818,Turk,Turk,11000,1,Y,tur,Turkish,5,6,Islam,0,0,24,A015,Turkic Peoples,309,C0221,Turkish,68,5,"Asia, Central",ASI,Asia,Y,N,1,Y,34.558664,68.887656
AF,Afghanistan,15654,110306,Turkmen,Turkmen,2273000,1,Y,tuk,Turkmen,5,6,Islam,0,0,24,A015,Turkic Peoples,310,C0222,Turkmen,12,5,"Asia, Central",ASI,Asia,Y,Y,45,Y,36.59488,64.75669
AF,Afghanistan,15755,110469,Uyghur,Uyghur,3600,1,Y,uig,Uyghur,5,6,Islam,0.05,0.05,24,A015,Turkic Peoples,313,C0225,Uyghur,17,5,"Asia, Central",ASI,Asia,Y,N,1,Y,34.89379,62.7225
AF,Afghanistan,15756,110472,"Uzbek, Southern","Uzbek, Southern",4593000,1,Y,uzs,"Uzbek, Southern",3,6,Islam,0.009,0.009,24,A015,Turkic Peoples,314,C0226,Uzbek,5,5,"Asia, Central",ASI,Asia,Y,Y,92,Y,36.33165,66.70937
AF,Afghanistan,15866,110689,Warduji,Warduji,8400,1,Y,prs,Dari,5,6,Islam,0,0,14,A005,Persian-Median,268,C0179,Persian,1,5,"Asia, Central",ASI,Asia,Y,Y,1,Y,36.98774,70.86259
AF,Afghanistan,15418,110865,Wotapuri-Katarqalai,Wotapuri-Katarqalai,3600,1,Y,pbu,"Pashto, Northern",5,6,Islam,0,0,21,A012,South Asian Peoples,462,A012,South Asia Muslim - other,1,5,"Asia, Central",ASI,Asia,Y,Y,1,Y,35.121354,70.981163
AL,Albania,20676,117066,"Egyptian, Balkan","Egyptian, Balkan",2900,1,Y,als,"Albanian, Tosk",5,6,Islam,4,0,12,A003,Eurasian Peoples,106,C0008,Albanian,5,9,"Europe, Eastern and Eurasia",EUR,Europe,Y,N,1,N,41.345601,19.818675
AL,Albania,18765,114431,Gorani,Gorani,35000,1,Y,srp,Serbian,5,6,Islam,5,0,12,A003,Eurasian Peoples,284,C0195,"Slav, Southern",4,9,"Europe, Eastern and Eurasia",EUR,Europe,Y,Y,1,N,40.660934,19.698161
AL,Albania,18274,113818,Turk,Turk,1700,1,Y,tur,Turkish,5,6,Islam,0.01,0.003,24,A015,Turkic Peoples,309,C0221,Turkish,68,9,"Europe, Eastern and Eurasia",EUR,Europe,Y,Y,1,Y,41.338572,19.796522
AG,Algeria,10379,100226,"Algerian, Arabic-speaking","Algerian, Arabic-speaking",32932000,1,Y,arq,"Arabic, Algerian Spoken",4,6,Islam,0.009,0.008,10,A001,Arab World,115,C0017,"Arab, Maghreb",18,6,"Africa, North and Middle East",AFR,Africa,Y,Y,659,Y,35.99742458,5.389438574
AG,Algeria,12247,104056,"Arab, Iraqi","Arab, Iraqi",4800,1,Y,acm,"Arabic, Mesopotamian Spoken",4,6,Islam,0.699,0.699,10,A001,Arab World,113,C0015,"Arab, Levant",24,6,"Africa, North and Middle East",AFR,Africa,Y,N,1,N,28.48947,1.28377
AG,Algeria,13819,106804,"Arab, Moroccan","Arab, Moroccan",187000,1,Y,ary,"Arabic, Moroccan Spoken",4,6,Islam,0.15,0.15,10,A001,Arab World,115,C0017,"Arab, Maghreb",21,6,"Africa, North and Middle East",AFR,Africa,Y,N,4,N,35.672832,-0.625895
AG,Algeria,11633,102751,"Bedouin, Dui-Menia","Bedouin, Dui-Menia",85000,1,Y,arq,"Arabic, Algerian Spoken",4,6,Islam,0.009,0,10,A001,Arab World,137,C0041,"Bedouin, Saharan",1,6,"Africa, North and Middle East",AFR,Africa,Y,Y,2,Y,30.86561001,-2.458410721
AG,Algeria,12944,105567,"Bedouin, Laguat","Bedouin, Laguat",20000,1,Y,aao,"Arabic, Algerian Saharan Spoken",3,6,Islam,0,0,10,A001,Arab World,137,C0041,"Bedouin, Saharan",1,6,"Africa, North and Middle East",AFR,Africa,Y,Y,1,Y,33.95739228,3.103844449
AG,Algeria,13922,107028,"Bedouin, Nail","Bedouin, Nail",40000,1,Y,arq,"Arabic, Algerian Spoken",4,6,Islam,0,0,10,A001,Arab World,137,C0041,"Bedouin, Saharan",1,6,"Africa, North and Middle East",AFR,Africa,Y,Y,1,Y,34.14495886,4.588845476
AG,Algeria,14584,108427,"Bedouin, Ruarha","Bedouin, Ruarha",85000,1,Y,arq,"Arabic, Algerian Spoken",4,6,Islam,0,0,10,A001,Arab World,115,C0017,"Arab, Maghreb",1,6,"Africa, North and Middle East",AFR,Africa,Y,Y,2,Y,33.52546407,6.014430076
AG,Algeria,14938,108988,"Bedouin, Sidi","Bedouin, Sidi",20000,1,Y,aao,"Arabic, Algerian Saharan Spoken",3,6,Islam,0.009,0,10,A001,Arab World,137,C0041,"Bedouin, Saharan",1,6,"Africa, North and Middle East",AFR,Africa,Y,Y,1,Y,27.611488,-3.430999
AG,Algeria,15095,109560,"Bedouin, Suafa","Bedouin, Suafa",135000,1,Y,arq,"Arabic, Algerian Spoken",4,6,Islam,0.009,0,10,A001,Arab World,137,C0041,"Bedouin, Saharan",1,6,"Africa, North and Middle East",AFR,Africa,Y,Y,3,Y,33.95742204,6.849871519
AG,Algeria,16103,111176,"Bedouin, Ziban","Bedouin, Ziban",20000,1,Y,aao,"Arabic, Algerian Saharan Spoken",3,6,Islam,0,0,10,A001,Arab World,137,C0041,"Bedouin, Saharan",1,6,"Africa, North and Middle East",AFR,Africa,Y,Y,1,Y,28.419452,-5.944667
AG,Algeria,10774,101223,Belbali,Belbali,3800,1,Y,kcy,Korandje,0,6,Islam,0,0,22,A013,Sub-Saharan Peoples,288,C0199,Songhai,1,6,"Africa, North and Middle East",AFR,Africa,Y,Y,1,Y,29.51367,-2.56296
AG,Algeria,11199,103014,"Berber, Figig","Berber, Figig",85000,1,Y,tzm,"Tamazight, Central Atlas",3,6,Islam,0.019,0,10,A001,Arab World,141,C0045,Berber-Saharan,1,6,"Africa, North and Middle East",AFR,Africa,Y,Y,2,Y,31.96320642,-0.961098651
AG,Algeria,12217,104002,"Berber, Imazighen","Berber, Imazighen",1703000,1,Y,tzm,"Tamazight, Central Atlas",3,6,Islam,0.1,0.09,10,A001,Arab World,145,C0049,Berber-Shilha,6,6,"Africa, North and Middle East",AFR,Africa,Y,Y,34,Y,33.563667,-0.28593
AG,Algeria,12399,104365,"Berber, Kabyle","Berber, Kabyle",6433000,1,Y,kab,Amazigh,5,6,Islam,0.25,0.24,10,A001,Arab World,142,C0046,Berber-Kabyle,5,6,"Africa, North and Middle East",AFR,Africa,Y,Y,129,N,36.39003,4.55784
AG,Algeria,13669,106536,"Berber, Menasser","Berber, Menasser",85000,1,Y,tzm,"Tamazight, Central Atlas",3,6,Islam,0,0,10,A001,Arab World,145,C0049,Berber-Shilha,1,6,"Africa, North and Middle East",AFR,Africa,Y,Y,2,Y,32.94803788,-0.590039475
AG,Algeria,13842,106837,"Berber, Mozabite","Berber, Mozabite",194000,1,Y,mzb,Tumzabt,0,6,Islam,0,0,10,A001,Arab World,141,C0045,Berber-Saharan,2,6,"Africa, North and Middle East",AFR,Africa,Y,Y,4,Y,32.47268,3.84135
AG,Algeria,10803,101275,"Berber, Rif","Berber, Rif",500,1,Y,rif,Tarifit,4,6,Islam,0.019,0.005,10,A001,Arab World,143,C0047,Berber-Riff,4,6,"Africa, North and Middle East",AFR,Africa,Y,N,1,Y,35.83907,-0.34831
AG,Algeria,14899,108925,"Berber, Shawiya","Berber, Shawiya",2380000,1,Y,shy,Tachawit,3,6,Islam,0,0,10,A001,Arab World,144,C0048,Berber-Shawiya,6,6,"Africa, North and Middle East",AFR,Africa,Y,Y,48,Y,35.27603,6.93694
AG,Algeria,14911,108945,"Berber, Southern Shilha","Berber, Southern Shilha",6700,1,Y,shi,Tachelhit,4,6,Islam,0.09,0,10,A001,Arab World,145,C0049,Berber-Shilha,3,6,"Africa, North and Middle East",AFR,Africa,Y,Y,1,Y,29.29423,-7.3006
AG,Algeria,15609,110235,"Berber, Taznatit","Berber, Taznatit",12000,1,Y,grr,Taznatit,0,6,Islam,0.009,0.009,10,A001,Arab World,141,C0045,Berber-Saharan,1,6,"Africa, North and Middle East",AFR,Africa,Y,Y,1,Y,29.1496,0.10051
AG,Algeria,15473,110042,"Berber, Tidikelt Tamzight","Berber, Tidikelt Tamzight",1100,1,Y,arq,"Arabic, Algerian Spoken",4,6,Islam,0.029,0.01,10,A001,Arab World,141,C0045,Berber-Saharan,1,6,"Africa, North and Middle East",AFR,Africa,Y,Y,1,Y,26.91172,1.79388
AG,Algeria,15572,110182,"Berber, Tougourt","Berber, Tougourt",8400,1,Y,arq,"Arabic, Algerian Spoken",4,6,Islam,0.05,0.04,10,A001,Arab World,141,C0045,Berber-Saharan,1,6,"Africa, North and Middle East",AFR,Africa,Y,Y,1,Y,33.31437,6.0497
AG,Algeria,11321,102070,Chenoua,Chenoua,106000,1,Y,cnu,Chenoua,1,6,Islam,0,0,10,A001,Arab World,142,C0046,Berber-Kabyle,1,6,"Africa, North and Middle East",AFR,Africa,Y,Y,2,Y,36.60729,2.19664
AG,Algeria,19206,115066,"Chinese, general","Chinese, general",37000,1,Y,cmn,"Chinese, Mandarin",5,7,Non-Religious,1,0.8,11,A002,East Asian Peoples,161,C0065,Chinese,63,6,"Africa, North and Middle East",AFR,Africa,Y,N,1,N,36.685411,3.21938
AG,Algeria,19007,114916,Deaf,Deaf,227000,1,Y,asp,Algerian Sign Language,1,6,Islam,0.28,,26,A017,Deaf,328,C0252,Deaf,216,6,"Africa, North and Middle East",AFR,Africa,Y,Y,5,N,36.4762,3.5462
AG,Algeria,12070,103733,Hausa,Hausa,12000,1,Y,hau,Hausa,5,6,Islam,0,0,22,A013,Sub-Saharan Peoples,186,C0090,Hausa,16,6,"Africa, North and Middle East",AFR,Africa,Y,N,1,Y,26.50063207,8.477400933
AG,Algeria,12178,103948,Idaksahak,Idaksahak,3900,1,Y,dsq,Tadaksahak,1,6,Islam,0,0,22,A013,Sub-Saharan Peoples,288,C0199,Songhai,2,6,"Africa, North and Middle East",AFR,Africa,Y,N,1,Y,29.41261534,-3.286603179
AG,Algeria,18364,113933,Ouargla,Ouargla,23000,1,Y,oua,Tagargrent,0,6,Islam,0.05,0.02,10,A001,Arab World,141,C0045,Berber-Saharan,1,6,"Africa, North and Middle East",AFR,Africa,Y,Y,1,Y,31.94879,5.27286
AG,Algeria,14570,108397,"Romani, Balkan","Romani, Balkan",4700,1,Y,arq,"Arabic, Algerian Spoken",4,6,Islam,0.09,0.09,12,A003,Eurasian Peoples,354,C0279,Romani,17,6,"Africa, North and Middle East",AFR,Africa,Y,Y,1,Y,36.62111916,3.096820261
AG,Algeria,14639,108512,Sahrawi,Sahrawi,173000,1,Y,mey,"Arabic, Hassaniyya",4,6,Islam,0.005,0.005,10,A001,Arab World,112,C0014,"Arab, Hassaniya",5,6,"Africa, North and Middle East",AFR,Africa,Y,Y,3,Y,27.67405367,-8.146384189
AG,Algeria,15199,109730,Tajakant,Tajakant,51000,1,Y,mey,"Arabic, Hassaniyya",4,6,Islam,0,0,10,A001,Arab World,137,C0041,"Bedouin, Saharan",2,6,"Africa, North and Middle East",AFR,Africa,Y,Y,1,Y,35.42078,3.23033
AG,Algeria,15226,109776,"Tuareg, Algerian","Tuareg, Algerian",76000,1,Y,aao,"Arabic, Algerian Saharan Spoken",3,6,Islam,0.009,0.009,10,A001,Arab World,307,C0219,Tuareg,3,6,"Africa, North and Middle East",AFR,Africa,Y,Y,2,Y,28.14156,1.84671
AG,Algeria,15608,110233,"Tuareg, Tahaggart","Tuareg, Tahaggart",74000,1,Y,thv,"Tamahaq, Tahaggart",3,6,Islam,0,0,10,A001,Arab World,307,C0219,Tuareg,3,6,"Africa, North and Middle East",AFR,Africa,Y,Y,1,Y,22.48174,6.3768
AG,Algeria,18274,113818,Turk,Turk,3600,1,Y,tur,Turkish,5,6,Islam,0,0,24,A015,Turkic Peoples,309,C0221,Turkish,68,6,"Africa, North and Middle East",AFR,Africa,Y,N,1,Y,35.692,-0.622
AQ,American Samoa,12322,104189,Japanese,Japanese,1000,1,Y,jpn,Japanese,5,2,Buddhism,5,1,11,A002,East Asian Peoples,194,C0099,Japanese,44,1,Australia and Pacific,SOP,Oceania,N,N,1,N,-14.276768,-170.709739
AN,Andorra,13819,106804,"Arab, Moroccan","Arab, Moroccan",500,1,Y,ary,"Arabic, Moroccan Spoken",4,6,Islam,1,0.699,10,A001,Arab World,115,C0017,"Arab, Maghreb",21,10,"Europe, Western",EUR,Europe,N,N,1,N,42.534721,1.475602
AN,Andorra,19211,115527,"South Asian, general","South Asian, general",600,1,Y,hin,Hindi,5,5,Hinduism,1,0.3,21,A012,South Asian Peoples,468,A012,South Asia - other,59,10,"Europe, Western",EUR,Europe,N,N,1,N,42.480647,1.53237
AO,Angola,19206,115066,"Chinese, general","Chinese, general",53000,1,Y,cmn,"Chinese, Mandarin",5,7,Non-Religious,1.049,0.7,11,A002,East Asian Peoples,161,C0065,Chinese,63,7,"Africa, East and Southern",AFR,Africa,N,N,1,N,-8.843978903,13.22338566
AR,Argentina,15080,109538,"Jew, Spanish-speaking","Jew, Spanish-speaking",177000,1,Y,spa,Spanish,5,4,Ethnic Religions,0.21,0.21,15,A006,Jews,197,C0102,Jews,16,11,"America, Latin",LAM,South America,N,Y,4,N,-34.52268596,-58.7487892
AR,Argentina,18274,113818,Turk,Turk,800,1,Y,tur,Turkish,5,6,Islam,0,0,24,A015,Turkic Peoples,309,C0221,Turkish,68,11,"America, Latin",LAM,South America,N,N,1,Y,-34.747146,-58.687017
AM,Armenia,10528,100675,Azerbaijani,Azerbaijani,15000,1,Y,azj,"Azerbaijani, North",5,6,Islam,0,0,24,A015,Turkic Peoples,126,C0028,Azerbaijani,20,5,"Asia, Central",EUR,Europe,N,N,1,Y,40.38793,45.54902
AM,Armenia,12877,105458,"Kurd, Kurmanji","Kurd, Kurmanji",2200,1,Y,kmr,"Kurdish, Northern",5,6,Islam,0.5,0.5,14,A005,Persian-Median,208,C0114,Kurd,33,5,"Asia, Central",EUR,Europe,N,Y,1,N,40.45396,43.75905
AM,Armenia,15284,109874,Tatar,Tatar,500,1,Y,tat,Tatar,5,6,Islam,1.5,0,24,A015,Turkic Peoples,311,C0223,Ural-Siberian,22,5,"Asia, Central",EUR,Europe,N,N,1,N,40.836098,45.106639
AM,Armenia,20455,116305,Yazidi,Yazidi,36000,1,Y,kmr,"Kurdish, Northern",5,4,Ethnic Religions,0,0,14,A005,Persian-Median,208,C0114,Kurd,10,5,"Asia, Central",EUR,Europe,N,N,1,Y,40.233333,44.25
AS,Australia,19314,115238,"Afghani, general","Afghani, general",27000,1,Y,prs,Dari,5,6,Islam,0,0,21,A012,South Asian Peoples,463,A012,South Asia Muslim - Pashtun,11,1,Australia and Pacific,AUS,Australia,N,N,1,Y,-37.807867,144.951575
AS,Australia,19204,115690,"Arab, general","Arab, general",71000,1,Y,acm,"Arabic, Mesopotamian Spoken",4,6,Islam,0.5,0.3,10,A001,Arab World,324,C0237,"Arab World, general",8,1,Australia and Pacific,AUS,Australia,N,N,1,N,-33.8678,151.2078
AS,Australia,12247,104056,"Arab, Iraqi","Arab, Iraqi",71000,1,Y,acm,"Arabic, Mesopotamian Spoken",4,6,Islam,4,1,10,A001,Arab World,113,C0015,"Arab, Levant",24,1,Australia and Pacific,AUS,Australia,N,N,1,N,-37.812986,144.886962
AS,Australia,10953,101629,Bosniak,Bosniak,35000,1,Y,bos,Bosnian,5,6,Islam,0.5,0.3,12,A003,Eurasian Peoples,284,C0195,"Slav, Southern",24,1,Australia and Pacific,AUS,Australia,N,N,1,N,-33.928568,151.19899
AS,Australia,11029,101776,Burmese,Burmese,13000,1,Y,mya,Burmese,5,2,Buddhism,0.35,0.07,23,A014,Tibetan-Himalayan Peoples,154,C0058,Burmese,18,1,Australia and Pacific,AUS,Australia,N,N,1,N,-37.893995,144.626576
AS,Australia,11982,103544,Gujarati,Gujarati,55000,1,Y,guj,Gujarati,5,5,Hinduism,2,0,21,A012,South Asian Peoples,442,A012,South Asia Hindu - other,29,1,Australia and Pacific,AUS,Australia,N,N,1,N,-37.71,144.79
AS,Australia,12076,103743,Hazara,Hazara,23000,1,Y,haz,Hazaragi,3,6,Islam,0.03,0.03,14,A005,Persian-Median,268,C0179,Persian,8,1,Australia and Pacific,AUS,Australia,N,N,1,Y,-27.633275,153.127326
AS,Australia,18495,114106,Hmong Njua,Hmong Njua,2200,1,Y,hnj,Hmong Njua,5,4,Ethnic Religions,4,2,20,A011,Southeast Asian Peoples,230,C0138,Miao / Hmong,10,1,Australia and Pacific,AUS,Australia,N,N,1,N,-35.33088,149.156133
AS,Australia,12322,104189,Japanese,Japanese,37000,1,Y,jpn,Japanese,5,2,Buddhism,5,1.6,11,A002,East Asian Peoples,194,C0099,Japanese,44,1,Australia and Pacific,AUS,Australia,N,N,1,N,-33.867139,151.2073
AS,Australia,12347,117322,"Jew, English-speaking","Jew, English-speaking",119000,1,Y,eng,English,5,4,Ethnic Religions,1,0.015,15,A006,Jews,197,C0102,Jews,12,1,Australia and Pacific,AUS,Australia,N,N,2,N,-33.867139,151.2072
AS,Australia,12662,104946,Khmer,Khmer,36000,1,Y,khm,Khmer,5,2,Buddhism,5,1.4,20,A011,Southeast Asian Peoples,239,C0147,Mon-Khmer,13,1,Australia and Pacific,AUS,Australia,N,N,1,N,-37.954,145.146
AS,Australia,12877,105458,"Kurd, Kurmanji","Kurd, Kurmanji",4600,1,Y,kmr,"Kurdish, Northern",5,6,Islam,1,0.7,14,A005,Persian-Median,208,C0114,Kurd,33,1,Australia and Pacific,AUS,Australia,N,N,1,N,-37.81426,144.963169
AS,Australia,12989,105643,Lao,Lao,12000,1,Y,lao,Lao,5,2,Buddhism,3.5,1.9,20,A011,Southeast Asian Peoples,210,C0116,Lao,11,1,Australia and Pacific,AUS,Australia,N,N,1,N,-35.328804,149.140125
AS,Australia,13437,106144,Malay,Malay,179000,1,Y,zlm,Malay,5,6,Islam,0.3,0.25,17,A008,Malay Peoples,215,C0123,Malay,24,1,Australia and Pacific,AUS,Australia,N,N,4,N,-37.81425,144.96319
AS,Australia,11399,102252,"Malay, Cocos Islands","Malay, Cocos Islands",1300,1,Y,coa,"Malay, Cocos Islands",1,6,Islam,0,0,17,A008,Malay Peoples,215,C0123,Malay,4,1,Australia and Pacific,AUS,Australia,N,N,1,Y,-10.492947,105.629265
AS,Australia,13483,106221,Mandeaen,Mandaean,4200,1,Y,mid,Mandaic,0,8,Other / Small,0,0,10,A001,Arab World,121,C0023,Assyrian / Aramaic,6,1,Australia and Pacific,AUS,Australia,N,N,1,Y,-35.170346,149.13318
AS,Australia,18605,114225,"Mongol, Khalka","Mongol, Khalka",2200,1,Y,khk,"Mongolian, Halh",5,4,Ethnic Religions,0,0,11,A002,East Asian Peoples,238,C0146,Mongolian,12,1,Australia and Pacific,AUS,Australia,N,N,1,Y,-33.79,151.11
AS,Australia,13317,107204,Nepalese,"Nepali, general",133000,1,Y,npi,Nepali,5,5,Hinduism,2,1.5,21,A012,South Asian Peoples,442,A012,South Asia Hindu - other,10,1,Australia and Pacific,AUS,Australia,N,N,3,N,-33.86,151.17
AS,Australia,14256,107909,"Pashtun, Northern","Pashtun, Northern",9200,1,Y,pbu,"Pashto, Northern",5,6,Islam,0,0,21,A012,South Asian Peoples,463,A012,South Asia Muslim - Pashtun,18,1,Australia and Pacific,AUS,Australia,N,N,1,Y,-33.8104,151.112462
AS,Australia,14371,107987,Persian,Persian,61000,1,Y,pes,"Persian, Iranian",5,6,Islam,0.8,0.7,14,A005,Persian-Median,268,C0179,Persian,43,1,Australia and Pacific,AUS,Australia,N,N,1,N,-33.8672,151.2072
AS,Australia,14483,108182,Punjabi,Punjabi,137000,1,Y,pan,"Punjabi, Eastern",5,6,Islam,1,0.6,21,A012,South Asian Peoples,462,A012,South Asia Muslim - other,18,1,Australia and Pacific,AUS,Australia,N,N,3,N,-33.75,151.27
AS,Australia,11359,102170,Rohingya,Rohingya,2300,1,Y,rhg,Rohingya,3,6,Islam,0,0,21,A012,South Asian Peoples,462,A012,South Asia Muslim - other,8,1,Australia and Pacific,AUS,Australia,N,N,1,Y,-33.93,151.18
AS,Australia,14196,109305,Sinhalese,Sinhalese,149000,1,Y,sin,Sinhala,5,2,Buddhism,0,0,21,A012,South Asian Peoples,402,A012,South Asia Buddhist,17,1,Australia and Pacific,AUS,Australia,N,N,3,Y,-33.971857,151.231874
AS,Australia,14983,109392,Somali,Somali,15000,1,Y,som,Somali,5,6,Islam,0,0,13,A004,Horn of Africa Peoples,287,C0198,Somali,24,1,Australia and Pacific,AUS,Australia,N,N,1,Y,-33.95,151.23
AS,Australia,15145,109644,Swahili,Swahili,12000,1,Y,swh,Swahili,5,6,Islam,3,0.6,22,A013,Sub-Saharan Peoples,351,C0275,"Bantu, Swahili",25,1,Australia and Pacific,AUS,Australia,N,N,1,N,-33.787,150.9
AS,Australia,18211,113732,Tamil (Hindu traditions),Tamil,76000,1,Y,tam,Tamil,5,5,Hinduism,2,1,21,A012,South Asian Peoples,442,A012,South Asia Hindu - other,20,1,Australia and Pacific,AUS,Australia,N,N,2,N,-37.74,144.76
AS,Australia,11277,101940,Thai,Thai,70000,1,Y,tha,Thai,5,2,Buddhism,0.8,0.3,20,A011,Southeast Asian Peoples,303,C0215,Thai,29,1,Australia and Pacific,AUS,Australia,N,N,1,N,-37.98718,145.21426
AS,Australia,18274,113818,Turk,Turk,48000,1,Y,tur,Turkish,5,6,Islam,0.2,0.15,24,A015,Turkic Peoples,309,C0221,Turkish,68,1,Australia and Pacific,AUS,Australia,N,N,1,N,-37.680792,144.921009
AS,Australia,15727,110423,Urdu,Urdu,72000,1,Y,urd,Urdu,5,6,Islam,0,0,21,A012,South Asian Peoples,468,A012,South Asia - other,24,1,Australia and Pacific,AUS,Australia,N,N,1,Y,-37.66,144.97
AS,Australia,15755,110469,Uyghur,Uyghur,5100,1,Y,uig,Uyghur,5,6,Islam,0.5,0.4,24,A015,Turkic Peoples,313,C0225,Uyghur,17,1,Australia and Pacific,AUS,Australia,N,N,1,N,-37.8,144.8
AU,Austria,19314,115238,"Afghani, general","Afghani, general",44000,1,Y,prs,Dari,5,6,Islam,0,0,21,A012,South Asian Peoples,463,A012,South Asia Muslim - Pashtun,11,10,"Europe, Western",EUR,Europe,N,N,1,Y,48.282744,16.21958
AU,Austria,10953,101629,Bosniak,Bosniak,98000,1,Y,bos,Bosnian,5,6,Islam,1,0,12,A003,Eurasian Peoples,284,C0195,"Slav, Southern",24,10,"Europe, Western",EUR,Europe,N,N,2,N,46.730589,14.742261
AU,Austria,11317,102059,Chechen,Chechen,26000,1,Y,che,Chechen,5,6,Islam,0,0,12,A003,Eurasian Peoples,157,C0061,Caucasus,16,10,"Europe, Western",EUR,Europe,N,N,1,Y,46.63333,14.308752
AU,Austria,12346,104240,"Jew, German-speaking","Jew, German",10000,1,Y,deu,"German, Standard",5,4,Ethnic Religions,0.2,0.1,15,A006,Jews,197,C0102,Jews,4,10,"Europe, Western",EUR,Europe,N,Y,1,N,47.45471,13.34932
AU,Austria,12877,105458,"Kurd, Kurmanji","Kurd, Kurmanji",26000,1,Y,kmr,"Kurdish, Northern",5,6,Islam,0.104,0,14,A005,Persian-Median,208,C0114,Kurd,33,10,"Europe, Western",EUR,Europe,N,N,1,N,48.20219238,16.34289805
AU,Austria,14371,107987,Persian,Persian,15000,1,Y,pes,"Persian, Iranian",5,6,Islam,1,0.2,14,A005,Persian-Median,268,C0179,Persian,43,10,"Europe, Western",EUR,Europe,N,N,1,N,48.17689704,16.34776143
AU,Austria,19211,115527,"South Asian, general","South Asian, general",23000,1,Y,hin,Hindi,5,5,Hinduism,5,0.6,21,A012,South Asian Peoples,468,A012,South Asia - other,59,10,"Europe, Western",EUR,Europe,N,N,1,N,48.263024,16.518863
AU,Austria,18274,113818,Turk,Turk,118000,1,Y,tur,Turkish,5,6,Islam,0.101,0.06,24,A015,Turkic Peoples,309,C0221,Turkish,68,10,"Europe, Western",EUR,Europe,N,N,2,N,48.16779713,16.32772772
AJ,Azerbaijan,10495,100633,Avar,Avar,55000,1,Y,ava,Avar,4,6,Islam,0,0,12,A003,Eurasian Peoples,157,C0061,Caucasus,7,5,"Asia, Central",ASI,Asia,Y,Y,1,Y,41.73803,46.57754
AJ,Azerbaijan,10528,100675,Azerbaijani,Azerbaijani,8877000,1,Y,azj,"Azerbaijani, North",5,6,Islam,0.4,0.216,24,A015,Turkic Peoples,126,C0028,Azerbaijani,20,5,"Asia, Central",ASI,Asia,Y,Y,178,N,40.2128,47.68707
AJ,Azerbaijan,18859,100677,"Azerbaijani, Azeri Turk","Azerbaijani, Azeri Turk",299000,1,Y,azb,"Azerbaijani, South",5,6,Islam,0.25,0.15,24,A015,Turkic Peoples,126,C0028,Azerbaijani,6,5,"Asia, Central",ASI,Asia,Y,Y,6,N,39.8703397,48.07977935
AJ,Azerbaijan,11317,102059,Chechen,Chechen,5400,1,Y,che,Chechen,5,6,Islam,0,0,12,A003,Eurasian Peoples,157,C0061,Caucasus,16,5,"Asia, Central",ASI,Asia,Y,N,1,Y,41.69529919,48.48840324
AJ,Azerbaijan,11505,102454,Dargin,Dargin,1200,1,Y,dar,Dargwa,3,6,Islam,0,0,12,A003,Eurasian Peoples,157,C0061,Caucasus,7,5,"Asia, Central",ASI,Asia,Y,N,1,Y,41.76294623,48.57789103
AJ,Azerbaijan,19007,114916,Deaf,Deaf,77000,1,Y,xxx,Language unknown,0,6,Islam,2.74,,26,A017,Deaf,328,C0252,Deaf,216,5,"Asia, Central",ASI,Asia,Y,Y,2,N,40.39880754,49.81226449
AJ,Azerbaijan,14885,108898,Ilsavan,Ilsavan,2100,1,Y,azb,"Azerbaijani, South",5,6,Islam,0,0,24,A015,Turkic Peoples,126,C0028,Azerbaijani,2,5,"Asia, Central",ASI,Asia,Y,Y,1,Y,40.264563,48.866832
AJ,Azerbaijan,10839,116827,"Jewish Tat, Mountain Jews","Jewish Tat, Mountain Jew",15000,1,Y,jdt,Judeo-Tat,3,4,Ethnic Religions,0,0,15,A006,Jews,197,C0102,Jews,5,5,"Asia, Central",ASI,Asia,Y,Y,1,Y,41.37913,48.48932
AJ,Azerbaijan,12599,104791,Kazakh,Kazakh,2400,1,Y,kaz,Kazakh,5,6,Islam,0.09,0,24,A015,Turkic Peoples,202,C0108,Kazakh,25,5,"Asia, Central",ASI,Asia,Y,N,1,Y,40.40801444,49.84026537
AJ,Azerbaijan,12660,104944,Khinalug,"Khinalug, Ketsh Khalkh",2400,1,Y,kjj,Khinalugh,1,6,Islam,1.5,1.419,12,A003,Eurasian Peoples,157,C0061,Caucasus,1,5,"Asia, Central",ASI,Asia,Y,Y,1,N,41.17913,48.05821
AJ,Azerbaijan,11255,105327,Kryz,"Kryz, Dzhek",5900,1,Y,kry,Kryts,1,6,Islam,0.718,0.718,12,A003,Eurasian Peoples,157,C0061,Caucasus,1,5,"Asia, Central",ASI,Asia,Y,Y,1,N,41.17885,48.18208
AJ,Azerbaijan,12877,105458,"Kurd, Kurmanji","Kurd, Kurmanji",6700,1,Y,kmr,"Kurdish, Northern",5,6,Islam,0.04,0,14,A005,Persian-Median,208,C0114,Kurd,33,5,"Asia, Central",ASI,Asia,Y,Y,1,Y,39.82436,46.16556
AJ,Azerbaijan,12952,105583,Lak,Lak,1600,1,Y,lbe,Lak,3,6,Islam,0.8,0.8,12,A003,Eurasian Peoples,157,C0061,Caucasus,7,5,"Asia, Central",ASI,Asia,Y,N,1,N,41.36327916,48.52797087
AJ,Azerbaijan,13049,105742,Lezgin,Lezgin,198000,1,Y,lez,Lezgi,4,6,Islam,0.1,0.1,12,A003,Eurasian Peoples,157,C0061,Caucasus,9,5,"Asia, Central",ASI,Asia,Y,Y,4,Y,41.47999,48.34479
AJ,Azerbaijan,13896,106963,Mussulman Tat,Mussulman Tat,25000,1,Y,ttt,"Tat, Muslim",3,6,Islam,1.3,1.2,14,A005,Persian-Median,268,C0179,Persian,3,5,"Asia, Central",ASI,Asia,Y,Y,1,N,41.09124,48.75129
AJ,Azerbaijan,14371,107987,Persian,Persian,1500,1,Y,pes,"Persian, Iranian",5,6,Islam,0,0,14,A005,Persian-Median,268,C0179,Persian,43,5,"Asia, Central",ASI,Asia,Y,Y,1,Y,39.31327751,48.52985462
AJ,Azerbaijan,14603,108461,Rutul,Rutul,18000,1,Y,rut,Rutul,0,6,Islam,0.24,0.24,12,A003,Eurasian Peoples,157,C0061,Caucasus,2,5,"Asia, Central",ASI,Asia,Y,N,1,N,41.07969,46.74134
AJ,Azerbaijan,15220,109766,Talysh,Talysh,76000,1,Y,tly,Talysh,4,6,Islam,0,0,14,A005,Persian-Median,300,C0212,Talysh,4,5,"Asia, Central",ASI,Asia,Y,Y,2,Y,38.7389,48.59481
AJ,Azerbaijan,15284,109874,Tatar,Tatar,28000,1,Y,tat,Tatar,5,6,Islam,1.5,0,24,A015,Turkic Peoples,311,C0223,Ural-Siberian,22,5,"Asia, Central",ASI,Asia,Y,N,1,N,40.4111967,49.84400016
AJ,Azerbaijan,15587,110205,Tsakhur,Tsakhur,31000,1,Y,tkr,Tsakhur,0,6,Islam,0.111,0.111,12,A003,Eurasian Peoples,157,C0061,Caucasus,2,5,"Asia, Central",ASI,Asia,Y,Y,1,N,41.55684,46.86823
AJ,Azerbaijan,18274,113818,Turk,Turk,19000,1,Y,tur,Turkish,5,6,Islam,0,0,24,A015,Turkic Peoples,309,C0221,Turkish,68,5,"Asia, Central",ASI,Asia,Y,Y,1,Y,40.38344,49.893226
AJ,Azerbaijan,20631,115687,"Turk, Meskhetian","Turk, Meskhetian",103000,1,Y,tur,Turkish,5,6,Islam,0,0,24,A015,Turkic Peoples,309,C0221,Turkish,9,5,"Asia, Central",ASI,Asia,Y,N,2,Y,40.66981,46.371043
AJ,Azerbaijan,15756,110472,"Uzbek, Southern","Uzbek, Southern",2000,1,Y,uzs,"Uzbek, Southern",3,6,Islam,0,0,24,A015,Turkic Peoples,314,C0226,Uzbek,5,5,"Asia, Central",ASI,Asia,Y,N,1,Y,40.40414238,49.86133625
BA,Bahrain,10572,100772,"Arab, Bahraini","Arab, Bahraini",924000,1,Y,abv,"Arabic, Baharna Spoken",1,6,Islam,3.4,0.9,10,A001,Arab World,111,C0013,"Arab, Arabian",2,6,"Africa, North and Middle East",ASI,Asia,Y,Y,18,N,26.00272,50.5695
BA,Bahrain,11982,103544,Gujarati,Gujarati,36000,1,Y,guj,Gujarati,5,5,Hinduism,2,0.8,21,A012,South Asian Peoples,442,A012,South Asia Hindu - other,29,6,"Africa, North and Middle East",ASI,Asia,Y,N,1,N,26.2111634,50.5543368
BA,Bahrain,19226,100430,"Jew, Arabic-speaking","Jew, Arabic-speaking",90,1,Y,afb,"Arabic, Gulf Spoken",3,4,Ethnic Religions,0,0,15,A006,Jews,197,C0102,Jews,1,6,"Africa, North and Middle East",ASI,Asia,Y,N,1,Y,26.03648,50.55428
BA,Bahrain,12640,104863,Kerinci,Kerinci,27000,1,Y,kvr,Kerinci,3,6,Islam,2,1,17,A008,Malay Peoples,233,C0141,Minangkabau-Rejang of Sumatra,2,6,"Africa, North and Middle East",ASI,Asia,Y,N,1,N,26.21,50.58
BA,Bahrain,12877,105458,"Kurd, Kurmanji","Kurd, Kurmanji",61000,1,Y,kmr,"Kurdish, Northern",5,6,Islam,0.01,0.01,14,A005,Persian-Median,208,C0114,Kurd,33,6,"Africa, North and Middle East",ASI,Asia,Y,N,1,Y,26.21289543,50.47196569
BA,Bahrain,14371,107987,Persian,Persian,231000,1,Y,pes,"Persian, Iranian",5,6,Islam,1,0.8,14,A005,Persian-Median,268,C0179,Persian,43,6,"Africa, North and Middle East",ASI,Asia,Y,N,5,N,26.08076,50.49473
BA,Bahrain,18274,113818,Turk,Turk,1800,1,Y,tur,Turkish,5,6,Islam,0,0,24,A015,Turkic Peoples,309,C0221,Turkish,68,6,"Africa, North and Middle East",ASI,Asia,Y,N,1,Y,26.19677,50.484017
BA,Bahrain,15727,110423,Urdu,Urdu,80000,1,Y,urd,Urdu,5,6,Islam,0.009,0.005,21,A012,South Asian Peoples,468,A012,South Asia - other,24,6,"Africa, North and Middle East",ASI,Asia,Y,N,2,Y,26.16213365,50.51775906
BG,Bangladesh,16152,111252,Abdul,Abdul,42000,1,Y,ben,Bengali,5,6,Islam,0,0,21,A012,South Asian Peoples,462,A012,South Asia Muslim - other,3,4,"Asia, South",ASI,Asia,Y,Y,1,Y,22.99644425,89.83624592
BG,Bangladesh,16182,111287,Aguri,Aguri,2500,1,Y,ben,Bengali,5,5,Hinduism,0,0,21,A012,South Asian Peoples,442,A012,South Asia Hindu - other,2,4,"Asia, South",ASI,Asia,Y,Y,1,Y,25.86736673,88.84661027
BG,Bangladesh,19477,100142,Ahmadi,Ahmadi,3100,1,Y,ben,Bengali,5,6,Islam,0,0,21,A012,South Asian Peoples,462,A012,South Asia Muslim - other,3,4,"Asia, South",ASI,Asia,Y,Y,1,Y,24.34761757,90.55062673
BG,Bangladesh,16221,111334,Ansari,Ansari,15000,1,Y,ben,Bengali,5,6,Islam,0,0,21,A012,South Asian Peoples,452,A012,South Asia Muslim - Ansari,6,4,"Asia, South",ASI,Asia,Y,Y,1,Y,24.62683587,89.63034353
BG,Bangladesh,17559,112983,Arleng,Arleng,1500,1,Y,mjw,Karbi,5,5,Hinduism,0,0,21,A012,South Asian Peoples,475,A012,South Asia Tribal - other,2,4,"Asia, South",ASI,Asia,Y,Y,1,Y,25.00757393,92.21543432
BG,Bangladesh,16257,111379,Asur,Asur,1900,1,Y,syl,Sylheti,4,5,Hinduism,1.226,,21,A012,South Asian Peoples,475,A012,South Asia Tribal - other,2,4,"Asia, South",ASI,Asia,Y,Y,1,N,25.13802921,91.43103082
BG,Bangladesh,16333,111469,Badhai (Muslim traditions),Badhai (Muslim traditions),3300,1,Y,ben,Bengali,5,6,Islam,0,0,21,A012,South Asian Peoples,462,A012,South Asia Muslim - other,4,4,"Asia, South",ASI,Asia,Y,Y,1,Y,23.52590129,90.059086
BG,Bangladesh,16281,111406,Bagdi (Hindu traditions),Bagdi (Hindu traditions),83000,1,Y,ben,Bengali,5,5,Hinduism,0.308,,21,A012,South Asian Peoples,412,A012,South Asia Dalit - other,2,4,"Asia, South",ASI,Asia,Y,Y,2,N,23.24331651,89.43777181
BG,Bangladesh,10564,100760,Baha'i,Baha'i,11000,1,Y,ben,Bengali,5,8,Other / Small,0,0,21,A012,South Asian Peoples,468,A012,South Asia - other,4,4,"Asia, South",ASI,Asia,Y,Y,1,Y,24.40197496,90.55589842
BG,Bangladesh,16288,111413,Bahelia (Hindu traditions),Bahelia (Hindu traditions),3000,1,Y,ben,Bengali,5,5,Hinduism,0,0,21,A012,South Asian Peoples,412,A012,South Asia Dalit - other,2,4,"Asia, South",ASI,Asia,Y,Y,1,Y,24.945809,90.363387
BG,Bangladesh,22339,112887,Baidya,Baidya,1000,1,Y,ben,Bengali,5,6,Islam,0,0,21,A012,South Asian Peoples,462,A012,South Asia Muslim - other,1,4,"Asia, South",ASI,Asia,Y,Y,1,Y,22.35544,89.74316
BG,Bangladesh,16295,111421,Baidya (Hindu traditions),Baidya (Hindu traditions),127000,1,Y,ben,Bengali,5,5,Hinduism,0.07,,21,A012,South Asian Peoples,442,A012,South Asia Hindu - other,2,4,"Asia, South",ASI,Asia,Y,Y,3,Y,22.69122846,92.25421265
BG,Bangladesh,16296,111422,Baiga,Baiga,5100,1,Y,syl,Sylheti,4,5,Hinduism,0,0,21,A012,South Asian Peoples,475,A012,South Asia Tribal - other,2,4,"Asia, South",ASI,Asia,Y,Y,1,Y,25.07845529,91.51175615
BG,Bangladesh,16297,111424,Bairagi (Hindu traditions),Bairagi (Hindu traditions),190000,1,Y,ben,Bengali,5,5,Hinduism,0,0,21,A012,South Asian Peoples,442,A012,South Asia Hindu - other,4,4,"Asia, South",ASI,Asia,Y,Y,4,Y,25.7570357,89.25523419
BG,Bangladesh,16300,111427,Baiti,Baiti,6400,1,Y,ben,Bengali,5,5,Hinduism,0,0,21,A012,South Asian Peoples,442,A012,South Asia Hindu - other,2,4,"Asia, South",ASI,Asia,Y,Y,1,Y,24.18240179,90.92876841
BG,Bangladesh,19688,115140,Bania Agarwal,Bania Agarwal,2400,1,Y,ben,Bengali,5,5,Hinduism,0,0,21,A012,South Asian Peoples,416,A012,South Asia Forward Caste - Bania,4,4,"Asia, South",ASI,Asia,Y,Y,1,Y,24.07764452,90.01201061
BG,Bangladesh,19691,115143,Bania Bais,Bania Bais,1200,1,Y,ben,Bengali,5,5,Hinduism,0,0,21,A012,South Asian Peoples,416,A012,South Asia Forward Caste - Bania,2,4,"Asia, South",ASI,Asia,Y,Y,1,Y,24.05009714,90.43577787
BG,Bangladesh,19698,115150,Bania Gandha Banik,Bania Gandha Banik,4100,1,Y,ben,Bengali,5,5,Hinduism,0,0,21,A012,South Asian Peoples,416,A012,South Asia Forward Caste - Bania,2,4,"Asia, South",ASI,Asia,Y,Y,1,Y,24.416425,89.919144
BG,Bangladesh,19705,115157,Bania Khatri,Bania Khatri,2600,1,Y,ben,Bengali,5,5,Hinduism,0,0,21,A012,South Asian Peoples,416,A012,South Asia Forward Caste - Bania,3,4,"Asia, South",ASI,Asia,Y,Y,1,Y,24.19539208,89.40945148
BG,Bangladesh,19721,115174,Bania Rauniar,Bania Rauniar,800,1,Y,ben,Bengali,5,5,Hinduism,0,0,21,A012,South Asian Peoples,416,A012,South Asia Forward Caste - Bania,3,4,"Asia, South",ASI,Asia,Y,Y,1,Y,24.0199327,90.85636264
BG,Bangladesh,19724,115177,Bania Subarna Banik,Bania Subarna Banik,3300,1,Y,ben,Bengali,5,5,Hinduism,0,0,21,A012,South Asian Peoples,416,A012,South Asia Forward Caste - Bania,2,4,"Asia, South",ASI,Asia,Y,Y,1,Y,24.81583,89.777012
BG,Bangladesh,16318,111452,Bania,Bania unspecified,18000,1,Y,ben,Bengali,5,5,Hinduism,0,0,21,A012,South Asian Peoples,416,A012,South Asia Forward Caste - Bania,6,4,"Asia, South",ASI,Asia,Y,Y,1,Y,24.42033499,90.98661336
BG,Bangladesh,17482,112893,Banjara (Muslim traditions),Banjara (Muslim traditions),3700,1,Y,ben,Bengali,5,6,Islam,0,0,21,A012,South Asian Peoples,471,A012,South Asia Tribal - Banjara,3,4,"Asia, South",ASI,Asia,Y,Y,1,Y,23.01493984,90.02459467
BG,Bangladesh,16337,111473,Barman,Barman,71000,1,Y,ben,Bengali,5,5,Hinduism,0.715,,21,A012,South Asian Peoples,475,A012,South Asia Tribal - other,2,4,"Asia, South",ASI,Asia,Y,Y,1,N,24.89877,88.75398
BG,Bangladesh,16382,111524,Barua,Barua,34000,1,Y,ctg,Chittagonian,4,2,Buddhism,0,0,21,A012,South Asian Peoples,402,A012,South Asia Buddhist,3,4,"Asia, South",ASI,Asia,Y,Y,1,Y,22.73654708,92.10295928
BG,Bangladesh,10736,115233,Bauri,Bauri,14000,1,Y,ben,Bengali,5,5,Hinduism,0,0,21,A012,South Asian Peoples,412,A012,South Asia Dalit - other,2,4,"Asia, South",ASI,Asia,Y,Y,1,Y,22.51818548,91.96884514
BG,Bangladesh,16367,111509,Bedia (Hindu traditions),Bedia (Hindu traditions),6900,1,Y,ben,Bengali,5,5,Hinduism,0,0,21,A012,South Asian Peoples,475,A012,South Asia Tribal - other,3,4,"Asia, South",ASI,Asia,Y,Y,1,Y,25.01958857,91.47256616
BG,Bangladesh,17489,112902,Bedia (Muslim traditions),Bedia (Muslim traditions),50000,1,Y,ben,Bengali,5,6,Islam,0,0,21,A012,South Asian Peoples,475,A012,South Asia Tribal - other,4,4,"Asia, South",ASI,Asia,Y,Y,1,Y,23.06829679,89.91970896
BG,Bangladesh,16369,111511,Beg,Beg,1600,1,Y,ben,Bengali,5,6,Islam,0,0,21,A012,South Asian Peoples,462,A012,South Asia Muslim - other,2,4,"Asia, South",ASI,Asia,Y,Y,1,Y,24.70288,90.45284
BG,Bangladesh,16370,111512,Behara,Behara,81000,1,Y,ben,Bengali,5,6,Islam,0,0,21,A012,South Asian Peoples,462,A012,South Asia Muslim - other,2,4,"Asia, South",ASI,Asia,Y,Y,2,Y,22.76995892,89.83280961
BG,Bangladesh,16375,111517,Beldar (Hindu traditions),Beldar (Hindu traditions),13000,1,Y,ben,Bengali,5,5,Hinduism,0,0,21,A012,South Asian Peoples,442,A012,South Asia Hindu - other,3,4,"Asia, South",ASI,Asia,Y,Y,1,Y,23.66832598,89.98835772
BG,Bangladesh,16384,111526,Besya (Hindu traditions),Besya (Hindu traditions),1500,1,Y,ben,Bengali,5,5,Hinduism,0,0,21,A012,South Asian Peoples,442,A012,South Asia Hindu - other,2,4,"Asia, South",ASI,Asia,Y,Y,1,Y,23.99184353,90.71322815
BG,Bangladesh,16385,111527,Besya (Muslim traditions),Besya (Muslim traditions),15000,1,Y,ben,Bengali,5,6,Islam,0,0,21,A012,South Asian Peoples,462,A012,South Asia Muslim - other,2,4,"Asia, South",ASI,Asia,Y,Y,1,Y,25.80706703,89.2699586
BG,Bangladesh,16405,111553,Bhar,Bhar,6000,1,Y,ben,Bengali,5,5,Hinduism,0,0,21,A012,South Asian Peoples,442,A012,South Asia Hindu - other,3,4,"Asia, South",ASI,Asia,Y,Y,1,Y,24.880156,89.310707
BG,Bangladesh,16406,111555,Bhat (Hindu traditions),Bhat (Hindu traditions),3200,1,Y,ben,Bengali,5,5,Hinduism,0,0,21,A012,South Asian Peoples,442,A012,South Asia Hindu - other,4,4,"Asia, South",ASI,Asia,Y,Y,1,Y,22.71289512,92.0649016
BG,Bangladesh,16429,111580,Bhoi (Hindu traditions),Bhoi (Hindu traditions),12000,1,Y,ben,Bengali,5,5,Hinduism,0,0,21,A012,South Asian Peoples,422,A012,South Asia Hindu - Bhoi,3,4,"Asia, South",ASI,Asia,Y,Y,1,Y,24.86943448,89.54717897
BG,Bangladesh,16424,111575,Bhuinhar,Bhuinhar,1600,1,Y,ben,Bengali,5,5,Hinduism,0,0,21,A012,South Asian Peoples,442,A012,South Asia Hindu - other,2,4,"Asia, South",ASI,Asia,Y,Y,1,Y,25.89333426,89.52960971
BG,Bangladesh,16426,111577,Bhuinmali,Bhuinmali,96000,1,Y,ben,Bengali,5,5,Hinduism,0.418,,21,A012,South Asian Peoples,412,A012,South Asia Dalit - other,2,4,"Asia, South",ASI,Asia,Y,Y,2,N,24.30175577,90.77160521
BG,Bangladesh,21122,117945,Bhuiya Ghatwar,Bhuiya Ghatwar,2500,1,Y,ben,Bengali,5,5,Hinduism,0,0,21,A012,South Asian Peoples,412,A012,South Asia Dalit - other,2,4,"Asia, South",ASI,Asia,Y,Y,1,Y,22.44861309,91.85618202
BG,Bangladesh,16452,111613,Bhuiya,Bhuiya unspecified,12000,1,Y,ben,Bengali,5,5,Hinduism,0,0,21,A012,South Asian Peoples,412,A012,South Asia Dalit - other,2,4,"Asia, South",ASI,Asia,Y,Y,1,Y,25.15810877,88.95011123
BG,Bangladesh,16447,111603,Bhumij,Bhumij,34000,1,Y,syl,Sylheti,4,5,Hinduism,1.115,,21,A012,South Asian Peoples,475,A012,South Asia Tribal - other,2,4,"Asia, South",ASI,Asia,Y,Y,1,N,24.888958,91.886858
BG,Bangladesh,19654,116075,Bihari (Muslim traditions),Bihari (Muslim traditions),927000,1,Y,urd,Urdu,5,6,Islam,0,0,21,A012,South Asian Peoples,462,A012,South Asia Muslim - other,1,4,"Asia, South",ASI,Asia,Y,Y,19,Y,24.39236655,90.78203877
BG,Bangladesh,16457,111621,Bind,Bind,9000,1,Y,ben,Bengali,5,5,Hinduism,0,0,21,A012,South Asian Peoples,442,A012,South Asia Hindu - other,3,4,"Asia, South",ASI,Asia,Y,Y,1,Y,24.66814096,89.84818398
BG,Bangladesh,16489,111659,Binjhia,Binjhia,6600,1,Y,syl,Sylheti,4,5,Hinduism,2.037,,21,A012,South Asian Peoples,475,A012,South Asia Tribal - other,2,4,"Asia, South",ASI,Asia,Y,Y,1,N,24.97818085,92.22269218
BG,Bangladesh,16461,111625,Birhor,Birhor,1300,1,Y,syl,Sylheti,4,5,Hinduism,2.33,,21,A012,South Asian Peoples,475,A012,South Asia Tribal - other,2,4,"Asia, South",ASI,Asia,Y,Y,1,N,25.01810015,91.39505451
BG,Bangladesh,16463,111627,Birjia,Birjia,500,1,Y,syl,Sylheti,4,5,Hinduism,0,0,21,A012,South Asian Peoples,475,A012,South Asia Tribal - other,2,4,"Asia, South",ASI,Asia,Y,Y,1,Y,24.98002941,91.61680343
BG,Bangladesh,20209,115966,Bishnupriya Manipuri,Bishnupriya Manipuri,19000,1,Y,bpy,Bishnupuriya,3,5,Hinduism,0.197,,21,A012,South Asian Peoples,442,A012,South Asia Hindu - other,2,4,"Asia, South",ASI,Asia,Y,Y,1,N,24.8929,91.858075
BG,Bangladesh,16468,111633,Biswas (Hindu traditions),Biswas (Hindu traditions),2600,1,Y,ben,Bengali,5,5,Hinduism,0,0,21,A012,South Asian Peoples,442,A012,South Asia Hindu - other,1,4,"Asia, South",ASI,Asia,Y,Y,1,Y,22.86979932,89.74122619
BG,Bangladesh,16467,111632,Biswas (Muslim traditions),Biswas (Muslim traditions),36000,1,Y,ben,Bengali,5,6,Islam,0,0,21,A012,South Asian Peoples,462,A012,South Asia Muslim - other,2,4,"Asia, South",ASI,Asia,Y,Y,1,Y,22.81848198,89.80522084
BG,Bangladesh,16492,111662,Bodo (Hindu traditions),Bodo (Hindu traditions),13000,1,Y,syl,Sylheti,4,5,Hinduism,0,0,21,A012,South Asian Peoples,475,A012,South Asia Tribal - other,3,4,"Asia, South",ASI,Asia,Y,Y,1,Y,24.3582,91.46236
BG,Bangladesh,20345,116129,Brahmin Acharaj,Brahmin Acharaj,1300,1,Y,ben,Bengali,5,5,Hinduism,0,0,21,A012,South Asian Peoples,417,A012,South Asia Forward Caste - Brahmin,2,4,"Asia, South",ASI,Asia,Y,Y,1,Y,24.1941448,90.91406572
BG,Bangladesh,21689,118477,Brahmin Barna,Brahmin Barna,4000,1,Y,ben,Bengali,5,5,Hinduism,0,0,21,A012,South Asian Peoples,417,A012,South Asia Forward Caste - Brahmin,2,4,"Asia, South",ASI,Asia,Y,Y,1,Y,23.74745,90.57575
BG,Bangladesh,21690,118478,Brahmin Bhat,Brahmin Bhat,500,1,Y,ben,Bengali,5,5,Hinduism,0,0,21,A012,South Asian Peoples,417,A012,South Asia Forward Caste - Brahmin,3,4,"Asia, South",ASI,Asia,Y,Y,1,Y,23.79566,90.26357
BG,Bangladesh,19943,115717,Brahmin Gaur,Brahmin Gaur,27000,1,Y,ben,Bengali,5,5,Hinduism,0,0,21,A012,South Asian Peoples,417,A012,South Asia Forward Caste - Brahmin,4,4,"Asia, South",ASI,Asia,Y,Y,1,Y,22.98444816,91.97450261
BG,Bangladesh,19949,115725,Brahmin Joshi,Brahmin Joshi,2300,1,Y,ben,Bengali,5,5,Hinduism,0,0,21,A012,South Asian Peoples,417,A012,South Asia Forward Caste - Brahmin,3,4,"Asia, South",ASI,Asia,Y,Y,1,Y,24.28459168,90.71407853
BG,Bangladesh,19951,115727,Brahmin Kanaujia,Brahmin Kanaujia,6000,1,Y,ben,Bengali,5,5,Hinduism,0,0,21,A012,South Asian Peoples,417,A012,South Asia Forward Caste - Brahmin,3,4,"Asia, South",ASI,Asia,Y,Y,1,Y,24.71291956,88.66769441
BG,Bangladesh,19960,115737,Brahmin Maithili,Brahmin Maithili,3700,1,Y,ben,Bengali,5,5,Hinduism,0,0,21,A012,South Asian Peoples,417,A012,South Asia Forward Caste - Brahmin,2,4,"Asia, South",ASI,Asia,Y,Y,1,Y,25.05795629,88.92845208
BG,Bangladesh,19972,115753,Brahmin Radhi,Brahmin Radhi,50000,1,Y,ben,Bengali,5,5,Hinduism,0,0,21,A012,South Asian Peoples,417,A012,South Asia Forward Caste - Brahmin,3,4,"Asia, South",ASI,Asia,Y,Y,1,Y,24.06090447,90.55079373
BG,Bangladesh,19974,115755,Brahmin Sakaldwipi,Brahmin Sakaldwipi,3000,1,Y,ben,Bengali,5,5,Hinduism,0,0,21,A012,South Asian Peoples,417,A012,South Asia Forward Caste - Brahmin,3,4,"Asia, South",ASI,Asia,Y,Y,1,Y,22.68631795,92.35745625
BG,Bangladesh,19977,115758,Brahmin Saraswat,Brahmin Saraswat,6300,1,Y,ben,Bengali,5,5,Hinduism,0,0,21,A012,South Asian Peoples,417,A012,South Asia Forward Caste - Brahmin,3,4,"Asia, South",ASI,Asia,Y,Y,1,Y,24.09660342,90.59563839
BG,Bangladesh,16521,111696,Brahmin,Brahmin unspecified,239000,1,Y,ben,Bengali,5,5,Hinduism,0,0,21,A012,South Asian Peoples,417,A012,South Asia Forward Caste - Brahmin,6,4,"Asia, South",ASI,Asia,Y,Y,5,Y,24.04276766,90.43989596
BG,Bangladesh,19985,115769,Brahmin Utkal,Brahmin Utkal,4000,1,Y,ben,Bengali,5,5,Hinduism,0,0,21,A012,South Asian Peoples,417,A012,South Asia Forward Caste - Brahmin,2,4,"Asia, South",ASI,Asia,Y,Y,1,Y,24.48221567,88.89317962
BG,Bangladesh,19986,115771,Brahmin Vaidik,Brahmin Vaidik,4900,1,Y,ben,Bengali,5,5,Hinduism,0,0,21,A012,South Asian Peoples,417,A012,South Asia Forward Caste - Brahmin,2,4,"Asia, South",ASI,Asia,Y,Y,1,Y,24.05076947,90.11762668
BG,Bangladesh,19987,115772,Brahmin Varendra,Brahmin Varendra,20000,1,Y,ben,Bengali,5,5,Hinduism,0,0,21,A012,South Asian Peoples,417,A012,South Asia Forward Caste - Brahmin,2,4,"Asia, South",ASI,Asia,Y,Y,1,Y,24.11828245,90.849617
BG,Bangladesh,16541,111726,Buna (Hindu traditions),Buna (Hindu traditions),95000,1,Y,ben,Bengali,5,5,Hinduism,0,0,21,A012,South Asian Peoples,442,A012,South Asia Hindu - other,2,4,"Asia, South",ASI,Asia,Y,Y,2,Y,24.287839,89.909928
BG,Bangladesh,11029,101776,Burmese,Burmese,79000,1,Y,mya,Burmese,5,2,Buddhism,0.086,,23,A014,Tibetan-Himalayan Peoples,154,C0058,Burmese,18,4,"Asia, South",ASI,Asia,Y,N,2,Y,21.44058468,92.17228402
BG,Bangladesh,16564,111755,Chain,Chain,24000,1,Y,ben,Bengali,5,5,Hinduism,0,0,21,A012,South Asian Peoples,442,A012,South Asia Hindu - other,2,4,"Asia, South",ASI,Asia,Y,Y,1,Y,25.11689327,89.05288986
BG,Bangladesh,11291,101968,Chak,Chak,6400,1,Y,ckh,Chak,1,2,Buddhism,0.352,,21,A012,South Asian Peoples,402,A012,South Asia Buddhist,3,4,"Asia, South",ASI,Asia,Y,Y,1,N,21.742389,92.380151
BG,Bangladesh,16561,111752,Chamar (Hindu traditions),Chamar (Hindu traditions),75000,1,Y,ben,Bengali,5,5,Hinduism,2.078,,21,A012,South Asian Peoples,412,A012,South Asia Dalit - other,4,4,"Asia, South",ASI,Asia,Y,Y,2,N,24.32986671,90.7707302
BG,Bangladesh,16577,111770,Chasadhobi,Chasadhobi,9300,1,Y,ben,Bengali,5,5,Hinduism,0,0,21,A012,South Asian Peoples,442,A012,South Asia Hindu - other,2,4,"Asia, South",ASI,Asia,Y,Y,1,Y,25.12715528,88.7895242
BG,Bangladesh,16583,111778,Chero,Chero,8900,1,Y,syl,Sylheti,4,5,Hinduism,0.949,,21,A012,South Asian Peoples,475,A012,South Asia Tribal - other,2,4,"Asia, South",ASI,Asia,Y,Y,1,N,24.97525153,91.39296986
BG,Bangladesh,16552,111742,Chik Baraik,Chik Baraik,8400,1,Y,syl,Sylheti,4,5,Hinduism,1.466,,21,A012,South Asian Peoples,475,A012,South Asia Tribal - other,2,4,"Asia, South",ASI,Asia,Y,Y,1,N,25.099077,91.752626
BG,Bangladesh,19069,114884,Dai (Hindu traditions),Dai (Hindu traditions),9600,1,Y,ben,Bengali,5,5,Hinduism,0,0,21,A012,South Asian Peoples,442,A012,South Asia Hindu - other,1,4,"Asia, South",ASI,Asia,Y,Y,1,Y,22.80986595,89.89682283
BG,Bangladesh,16659,111872,Dai (Muslim traditions),Dai (Muslim traditions),84000,1,Y,ben,Bengali,5,6,Islam,0,0,21,A012,South Asian Peoples,462,A012,South Asia Muslim - other,2,4,"Asia, South",ASI,Asia,Y,Y,2,Y,24.612936,90.554495
BG,Bangladesh,16663,111877,Dalu,Dalu,11000,1,Y,ben,Bengali,5,6,Islam,0,0,21,A012,South Asian Peoples,462,A012,South Asia Muslim - other,2,4,"Asia, South",ASI,Asia,Y,Y,1,Y,25.541332,89.067688
BG,Bangladesh,17513,112930,Darzi (Muslim traditions),Darzi (Muslim traditions),33000,1,Y,ben,Bengali,5,6,Islam,0,0,21,A012,South Asian Peoples,462,A012,South Asia Muslim - other,4,4,"Asia, South",ASI,Asia,Y,Y,1,Y,23.2283617,89.31718253
BG,Bangladesh,19007,114916,Deaf,Deaf,1258000,1,Y,wbs,West Bengal Sign Language,0,6,Islam,0.66,,26,A017,Deaf,328,C0252,Deaf,216,4,"Asia, South",ASI,Asia,Y,Y,25,N,24.33858223,90.77813483
BG,Bangladesh,16696,111925,Dhanuk,Dhanuk,3500,1,Y,ben,Bengali,5,5,Hinduism,0,0,21,A012,South Asian Peoples,442,A012,South Asia Hindu - other,3,4,"Asia, South",ASI,Asia,Y,Y,1,Y,25.83093,88.848867
BG,Bangladesh,16709,111944,Dhobi (Hindu traditions),Dhobi (Hindu traditions),150000,1,Y,ben,Bengali,5,5,Hinduism,0,0,21,A012,South Asian Peoples,442,A012,South Asia Hindu - other,5,4,"Asia, South",ASI,Asia,Y,Y,3,Y,22.9901271,91.26942899
BG,Bangladesh,17519,112937,Dhobi (Muslim traditions),Dhobi (Muslim traditions),38000,1,Y,ben,Bengali,5,6,Islam,0,0,21,A012,South Asian Peoples,462,A012,South Asia Muslim - other,4,4,"Asia, South",ASI,Asia,Y,Y,1,Y,25.09359019,89.25608638
BG,Bangladesh,17520,112938,Dholi (Muslim traditions),Dholi (Muslim traditions),61000,1,Y,syl,Sylheti,4,6,Islam,0,0,21,A012,South Asian Peoples,462,A012,South Asia Muslim - other,2,4,"Asia, South",ASI,Asia,Y,Y,1,Y,25.08064475,92.12061036
BG,Bangladesh,16727,111968,Doai,Doai,2900,1,Y,ben,Bengali,5,5,Hinduism,0,0,21,A012,South Asian Peoples,412,A012,South Asia Dalit - other,2,4,"Asia, South",ASI,Asia,Y,Y,1,Y,25.68377163,89.4713531
BG,Bangladesh,17522,112941,Dom (Muslim traditions),Dom (Muslim traditions),3100,1,Y,ben,Bengali,5,6,Islam,0,0,21,A012,South Asian Peoples,462,A012,South Asia Muslim - other,4,4,"Asia, South",ASI,Asia,Y,Y,1,Y,23.343493,92.140089
BG,Bangladesh,16734,111977,Domar (Hindu traditions),Domar (Hindu traditions),28000,1,Y,ctg,Chittagonian,4,5,Hinduism,0,0,21,A012,South Asian Peoples,412,A012,South Asia Dalit - other,4,4,"Asia, South",ASI,Asia,Y,Y,1,Y,22.73888051,92.00223569
BG,Bangladesh,16751,111999,Dulia,Dulia,9600,1,Y,ben,Bengali,5,5,Hinduism,0,0,21,A012,South Asian Peoples,442,A012,South Asia Hindu - other,2,4,"Asia, South",ASI,Asia,Y,Y,1,Y,24.637957,90.669857
BG,Bangladesh,16742,111988,Dusadh (Hindu traditions),Dusadh (Hindu traditions),8500,1,Y,ben,Bengali,5,5,Hinduism,0,0,21,A012,South Asian Peoples,407,A012,South Asia Dalit - Dusadh,3,4,"Asia, South",ASI,Asia,Y,Y,1,Y,25.617523,89.354422
BG,Bangladesh,17523,112942,Dusadh (Muslim traditions),Dusadh (Muslim traditions),2200,1,Y,ben,Bengali,5,6,Islam,0,0,21,A012,South Asian Peoples,462,A012,South Asia Muslim - other,2,4,"Asia, South",ASI,Asia,Y,Y,1,Y,22.54708,90.00991
BG,Bangladesh,21477,118293,Dusadh Bahelia,Dusadh Bahelia,5600,1,Y,ben,Bengali,5,5,Hinduism,0,0,21,A012,South Asian Peoples,407,A012,South Asia Dalit - Dusadh,2,4,"Asia, South",ASI,Asia,Y,Y,1,Y,24.38962,89.59
BG,Bangladesh,16762,112012,Faqir,Faqir,5300,1,Y,ben,Bengali,5,6,Islam,0,0,21,A012,South Asian Peoples,462,A012,South Asia Muslim - other,3,4,"Asia, South",ASI,Asia,Y,Y,1,Y,24.01978462,90.83969522
BG,Bangladesh,16768,112021,Gadaria (Hindu traditions),Gadaria (Hindu traditions),3900,1,Y,ben,Bengali,5,5,Hinduism,0,0,21,A012,South Asian Peoples,442,A012,South Asia Hindu - other,3,4,"Asia, South",ASI,Asia,Y,Y,1,Y,24.3963775,90.5759935
BG,Bangladesh,16775,112033,Gain,Gain,6500,1,Y,ben,Bengali,5,5,Hinduism,0,0,21,A012,South Asian Peoples,442,A012,South Asia Hindu - other,1,4,"Asia, South",ASI,Asia,Y,Y,1,Y,22.90111783,90.03168724
BG,Bangladesh,20445,116118,Ganak,Ganak,12000,1,Y,ben,Bengali,5,6,Islam,0,0,21,A012,South Asian Peoples,462,A012,South Asia Muslim - other,1,4,"Asia, South",ASI,Asia,Y,Y,1,Y,24.894341,91.914764
BG,Bangladesh,16867,112149,Gandpal,Gandpal,2200,1,Y,syl,Sylheti,4,5,Hinduism,0,0,21,A012,South Asian Peoples,442,A012,South Asia Hindu - other,1,4,"Asia, South",ASI,Asia,Y,Y,1,Y,25.046612,91.931058
BG,Bangladesh,16823,112092,Ghasiya (Hindu traditions),Ghasiya (Hindu traditions),2300,1,Y,ben,Bengali,5,5,Hinduism,0,0,21,A012,South Asian Peoples,412,A012,South Asia Dalit - other,2,4,"Asia, South",ASI,Asia,Y,Y,1,Y,22.908897,91.948026
BG,Bangladesh,16824,112093,Ghazi,Ghazi,98000,1,Y,ben,Bengali,5,6,Islam,0,0,21,A012,South Asian Peoples,462,A012,South Asia Muslim - other,2,4,"Asia, South",ASI,Asia,Y,Y,2,Y,22.69635589,92.41665044
BG,Bangladesh,16829,112104,Ghulam,Ghulam,7200,1,Y,ctg,Chittagonian,4,6,Islam,0,0,21,A012,South Asian Peoples,462,A012,South Asia Muslim - other,2,4,"Asia, South",ASI,Asia,Y,Y,1,Y,22.74746481,92.02066137
BG,Bangladesh,16855,112137,Gond,Gond,10000,1,Y,gno,"Gondi, Northern",4,5,Hinduism,0.357,,21,A012,South Asian Peoples,473,A012,South Asia Tribal - Gond,2,4,"Asia, South",ASI,Asia,Y,Y,1,N,25.05177751,91.58482031
BG,Bangladesh,16857,112139,Gonrhi,Gonrhi,6400,1,Y,ben,Bengali,5,5,Hinduism,0,0,21,A012,South Asian Peoples,442,A012,South Asia Hindu - other,3,4,"Asia, South",ASI,Asia,Y,Y,1,Y,24.885755,90.350134
BG,Bangladesh,16860,112142,Gorait,Gorait,900,1,Y,ben,Bengali,5,5,Hinduism,0.621,,21,A012,South Asian Peoples,475,A012,South Asia Tribal - other,2,4,"Asia, South",ASI,Asia,Y,Y,1,N,24.99387849,91.67707655
BG,Bangladesh,16862,112144,Gosain,Gosain,2200,1,Y,ben,Bengali,5,5,Hinduism,0,0,21,A012,South Asian Peoples,442,A012,South Asia Hindu - other,3,4,"Asia, South",ASI,Asia,Y,Y,1,Y,22.77869694,91.97863252
BG,Bangladesh,15366,110781,Gurung Ghaleg,Gurung Ghaleg,1200,1,Y,gvr,Gurung,4,2,Buddhism,0,0,21,A012,South Asian Peoples,402,A012,South Asia Buddhist,4,4,"Asia, South",ASI,Asia,Y,Y,1,Y,25.74415672,89.00373657
BG,Bangladesh,12027,103627,Hadi,Hadi,81000,1,Y,ben,Bengali,5,5,Hinduism,0.472,,21,A012,South Asian Peoples,412,A012,South Asia Dalit - other,3,4,"Asia, South",ASI,Asia,Y,Y,2,N,25.691577,88.694127
BG,Bangladesh,19655,112187,Hajam,Hajam,552000,1,Y,ben,Bengali,5,6,Islam,0,0,21,A012,South Asian Peoples,462,A012,South Asia Muslim - other,5,4,"Asia, South",ASI,Asia,Y,Y,11,Y,23.129217,92.075952
BG,Bangladesh,12036,103647,Hajang,Hajang,18000,1,Y,haj,Hajong,3,5,Hinduism,0,0,21,A012,South Asian Peoples,475,A012,South Asia Tribal - other,2,4,"Asia, South",ASI,Asia,Y,Y,1,Y,25.738656,89.588207
BG,Bangladesh,16905,112199,Halwai (Hindu traditions),Halwai (Hindu traditions),62000,1,Y,ben,Bengali,5,5,Hinduism,0,0,21,A012,South Asian Peoples,442,A012,South Asia Hindu - other,3,4,"Asia, South",ASI,Asia,Y,Y,1,Y,25.85477828,89.42418055
BG,Bangladesh,21140,117962,Halwai Maira,Halwai Maira,12000,1,Y,ben,Bengali,5,5,Hinduism,0,0,21,A012,South Asian Peoples,442,A012,South Asia Hindu - other,3,4,"Asia, South",ASI,Asia,Y,Y,1,Y,23.80672302,90.29871237
BG,Bangladesh,12051,103686,"Han Chinese, Mandarin","Han Chinese, Mandarin",3600,1,Y,cmn,"Chinese, Mandarin",5,2,Buddhism,0,0,11,A002,East Asian Peoples,161,C0065,Chinese,53,4,"Asia, South",ASI,Asia,Y,N,1,Y,24.04861494,90.68623833
BG,Bangladesh,22341,112215,Hazra,Hazra,1100,1,Y,ben,Bengali,5,6,Islam,0,0,21,A012,South Asian Peoples,462,A012,South Asia Muslim - other,1,4,"Asia, South",ASI,Asia,Y,Y,1,Y,22.42877,89.45979
BG,Bangladesh,16944,112247,Ho,Ho,94000,1,Y,syl,Sylheti,4,5,Hinduism,2.238,,21,A012,South Asian Peoples,475,A012,South Asia Tribal - other,2,4,"Asia, South",ASI,Asia,Y,Y,2,N,25.82297856,88.5664138
BG,Bangladesh,16981,112292,Jamadar,Jamadar,500,1,Y,ben,Bengali,5,6,Islam,0,0,21,A012,South Asian Peoples,462,A012,South Asia Muslim - other,1,4,"Asia, South",ASI,Asia,Y,Y,1,Y,22.64666661,89.77362172
BG,Bangladesh,17570,112997,Jaraj (Muslim traditions),Jaraj (Muslim traditions),28000,1,Y,ben,Bengali,5,6,Islam,0,0,21,A012,South Asian Peoples,462,A012,South Asia Muslim - other,1,4,"Asia, South",ASI,Asia,Y,Y,1,Y,24.8582638,90.6373749
BG,Bangladesh,17571,112998,Jat (Muslim traditions),Jat (Muslim traditions),1700,1,Y,ben,Bengali,5,6,Islam,0,0,21,A012,South Asian Peoples,458,A012,South Asia Muslim - Jat,6,4,"Asia, South",ASI,Asia,Y,Y,1,Y,22.85574153,89.85957015
BG,Bangladesh,18777,114456,Jat (Sikh traditions),Jat (Sikh traditions),3000,1,Y,ben,Bengali,5,8,Other / Small,0,0,21,A012,South Asian Peoples,469,A012,South Asia Sikh - Jat,6,4,"Asia, South",ASI,Asia,Y,Y,1,Y,24.02382044,90.79440586
BG,Bangladesh,21479,118295,Jat Atra,Jat Atra,3100,1,Y,ben,Bengali,5,6,Islam,0,0,21,A012,South Asian Peoples,458,A012,South Asia Muslim - Jat,3,4,"Asia, South",ASI,Asia,Y,Y,1,Y,22.42877,89.459
BG,Bangladesh,17007,112331,Jhalo Malo,Jhalo Malo,215000,1,Y,ben,Bengali,5,5,Hinduism,0.031,,21,A012,South Asian Peoples,412,A012,South Asia Dalit - other,2,4,"Asia, South",ASI,Asia,Y,Y,4,Y,24.539159,89.924201
BG,Bangladesh,17019,112352,Jogi (Hindu traditions),Jogi (Hindu traditions),620000,1,Y,ben,Bengali,5,5,Hinduism,0.081,,21,A012,South Asian Peoples,442,A012,South Asia Hindu - other,4,4,"Asia, South",ASI,Asia,Y,Y,12,Y,22.67856812,92.09789268
BG,Bangladesh,17573,113000,Jogi (Muslim traditions),Jogi (Muslim traditions),9000,1,Y,ben,Bengali,5,6,Islam,0,0,21,A012,South Asian Peoples,462,A012,South Asia Muslim - other,3,4,"Asia, South",ASI,Asia,Y,Y,1,Y,22.65924619,89.78237474
BG,Bangladesh,22099,119110,Jola,Jola,1331000,1,Y,ben,Bengali,5,6,Islam,0,0,21,A012,South Asian Peoples,462,A012,South Asia Muslim - other,1,4,"Asia, South",ASI,Asia,Y,Y,27,Y,24.38962,89.5927
BG,Bangladesh,17023,112357,Jotdar,Jotdar,2700,1,Y,ben,Bengali,5,6,Islam,0,0,21,A012,South Asian Peoples,462,A012,South Asia Muslim - other,1,4,"Asia, South",ASI,Asia,Y,Y,1,Y,22.77592131,89.77336327
BG,Bangladesh,17130,112479,Kachari Dimasa,Kachari Dimasa,12000,1,Y,dis,Dimasa,4,5,Hinduism,0.181,,21,A012,South Asian Peoples,475,A012,South Asia Tribal - other,2,4,"Asia, South",ASI,Asia,Y,Y,1,N,25.10137258,89.4069274
BG,Bangladesh,17041,112377,Kadar,Kadar,3800,1,Y,ben,Bengali,5,5,Hinduism,0,0,21,A012,South Asian Peoples,442,A012,South Asia Hindu - other,2,4,"Asia, South",ASI,Asia,Y,Y,1,Y,25.62340839,88.89157979
BG,Bangladesh,17043,112379,Kaghazi,Kaghazi,4100,1,Y,ben,Bengali,5,6,Islam,0,0,21,A012,South Asian Peoples,462,A012,South Asia Muslim - other,1,4,"Asia, South",ASI,Asia,Y,Y,1,Y,22.96536805,89.89296429
BG,Bangladesh,17044,112380,Kahar (Hindu traditions),Kahar (Hindu traditions),75000,1,Y,ben,Bengali,5,5,Hinduism,0,0,21,A012,South Asian Peoples,429,A012,South Asia Hindu - Kahar,3,4,"Asia, South",ASI,Asia,Y,Y,2,Y,25.72714477,89.29030398
BG,Bangladesh,17579,113006,Kahar (Muslim traditions),Kahar (Muslim traditions),7000,1,Y,ben,Bengali,5,6,Islam,0,0,21,A012,South Asian Peoples,462,A012,South Asia Muslim - other,3,4,"Asia, South",ASI,Asia,Y,Y,1,Y,23.57993861,90.02805849
BG,Bangladesh,21146,116134,Kaibartta Jalia,Kaibartta Jalia,246000,1,Y,ben,Bengali,5,5,Hinduism,0.011,,21,A012,South Asian Peoples,412,A012,South Asia Dalit - other,2,4,"Asia, South",ASI,Asia,Y,Y,5,Y,22.45399859,91.85588235
BG,Bangladesh,17016,112347,Kaibartta,Kaibartta unspecified,246000,1,Y,ben,Bengali,5,5,Hinduism,0.018,,21,A012,South Asian Peoples,412,A012,South Asia Dalit - other,4,4,"Asia, South",ASI,Asia,Y,Y,5,Y,22.75146052,91.98342884
BG,Bangladesh,17204,112570,Kalal (Hindu traditions),Kalal (Hindu traditions),2400,1,Y,ctg,Chittagonian,4,5,Hinduism,0,0,21,A012,South Asian Peoples,442,A012,South Asia Hindu - other,3,4,"Asia, South",ASI,Asia,Y,Y,1,Y,22.44862195,91.96554402
BG,Bangladesh,17060,112398,Kalu,Kalu,125000,1,Y,ben,Bengali,5,6,Islam,0,0,21,A012,South Asian Peoples,462,A012,South Asia Muslim - other,2,4,"Asia, South",ASI,Asia,Y,Y,2,Y,24.88645688,90.63219737
BG,Bangladesh,17061,112399,Kalwar (Hindu traditions),Kalwar (Hindu traditions),3200,1,Y,ben,Bengali,5,5,Hinduism,0,0,21,A012,South Asian Peoples,442,A012,South Asia Hindu - other,3,4,"Asia, South",ASI,Asia,Y,Y,1,Y,25.83284368,89.0168355
BG,Bangladesh,17066,112404,Kamar,Kamar,900,1,Y,ben,Bengali,5,5,Hinduism,0,0,21,A012,South Asian Peoples,475,A012,South Asia Tribal - other,3,4,"Asia, South",ASI,Asia,Y,Y,1,Y,25.61877,88.79392
BG,Bangladesh,17080,112418,Kandu,Kandu,17000,1,Y,ben,Bengali,5,5,Hinduism,0,0,21,A012,South Asian Peoples,442,A012,South Asia Hindu - other,3,4,"Asia, South",ASI,Asia,Y,Y,1,Y,23.98371158,90.61218537
BG,Bangladesh,17081,112420,Kanjar (Hindu traditions),Kanjar (Hindu traditions),1200,1,Y,ben,Bengali,5,5,Hinduism,0,0,21,A012,South Asian Peoples,412,A012,South Asia Dalit - other,3,4,"Asia, South",ASI,Asia,Y,Y,1,Y,25.11194889,89.54986116
BG,Bangladesh,17085,112425,Kaora,Kaora,5600,1,Y,ben,Bengali,5,5,Hinduism,0,0,21,A012,South Asian Peoples,412,A012,South Asia Dalit - other,2,4,"Asia, South",ASI,Asia,Y,Y,1,Y,22.44150022,89.65759105
BG,Bangladesh,17087,112427,Kapali,Kapali,166000,1,Y,ben,Bengali,5,5,Hinduism,0,0,21,A012,South Asian Peoples,442,A012,South Asia Hindu - other,2,4,"Asia, South",ASI,Asia,Y,Y,3,Y,24.3835568,90.49657128
BG,Bangladesh,17090,112430,Karadar,Karadar,5600,1,Y,ben,Bengali,5,6,Islam,0,0,21,A012,South Asian Peoples,462,A012,South Asia Muslim - other,1,4,"Asia, South",ASI,Asia,Y,Y,1,Y,23.59239716,89.98626
BG,Bangladesh,17104,112446,Karenga,Karenga,1700,1,Y,ben,Bengali,5,5,Hinduism,0,0,21,A012,South Asian Peoples,412,A012,South Asia Dalit - other,2,4,"Asia, South",ASI,Asia,Y,Y,1,Y,25.0668656,89.49777694
BG,Bangladesh,17102,112444,Karmali,Karmali,5200,1,Y,syl,Sylheti,4,5,Hinduism,2.7,,21,A012,South Asian Peoples,475,A012,South Asia Tribal - other,2,4,"Asia, South",ASI,Asia,Y,Y,1,N,24.934255,91.928575
BG,Bangladesh,17110,112453,Kasar (Hindu traditions),Kasar (Hindu traditions),8600,1,Y,ben,Bengali,5,5,Hinduism,0,0,21,A012,South Asian Peoples,442,A012,South Asia Hindu - other,3,4,"Asia, South",ASI,Asia,Y,Y,1,Y,23.37969514,89.43668954
BG,Bangladesh,17122,112468,Kawar,Kawar,3900,1,Y,ben,Bengali,5,5,Hinduism,0,0,21,A012,South Asian Peoples,475,A012,South Asia Tribal - other,3,4,"Asia, South",ASI,Asia,Y,Y,1,Y,24.50245288,90.52525973
BG,Bangladesh,17124,112470,Kayastha (Hindu traditions),Kayastha (Hindu traditions),1459000,1,Y,ben,Bengali,5,5,Hinduism,0.044,,21,A012,South Asian Peoples,431,A012,South Asia Hindu - Kayastha,4,4,"Asia, South",ASI,Asia,Y,Y,29,Y,22.90493904,92.17061104
BG,Bangladesh,21156,117979,Kayastha Karan,Kayastha Karan,251000,1,Y,ben,Bengali,5,5,Hinduism,0.05,,21,A012,South Asian Peoples,431,A012,South Asia Hindu - Kayastha,3,4,"Asia, South",ASI,Asia,Y,Y,5,Y,22.44972635,91.85415244
BG,Bangladesh,17143,112492,Khadala,Khadala,4300,1,Y,syl,Sylheti,4,5,Hinduism,0,0,21,A012,South Asian Peoples,412,A012,South Asia Dalit - other,2,4,"Asia, South",ASI,Asia,Y,Y,1,Y,24.96390757,92.2673871
BG,Bangladesh,17157,112507,Khairwar,Khairwar,1300,1,Y,ben,Bengali,5,5,Hinduism,0,0,21,A012,South Asian Peoples,475,A012,South Asia Tribal - other,2,4,"Asia, South",ASI,Asia,Y,Y,1,Y,24.20646061,89.38803983
BG,Bangladesh,17149,112498,Khami,Khami,5800,1,Y,ctg,Chittagonian,4,2,Buddhism,4.629,,21,A012,South Asian Peoples,468,A012,South Asia - other,1,4,"Asia, South",ASI,Asia,Y,Y,1,N,23.28057858,92.21635708
BG,Bangladesh,17150,112500,Khandait,Khandait,2900,1,Y,ben,Bengali,5,5,Hinduism,0,0,21,A012,South Asian Peoples,419,A012,South Asia Forward Caste - other,2,4,"Asia, South",ASI,Asia,Y,Y,1,Y,22.76068607,89.62760104
BG,Bangladesh,17153,112503,Kharia,Kharia,23000,1,Y,syl,Sylheti,4,5,Hinduism,1.173,,21,A012,South Asian Peoples,475,A012,South Asia Tribal - other,3,4,"Asia, South",ASI,Asia,Y,Y,1,N,25.0798266,92.02797727
BG,Bangladesh,17158,112508,Kharwar,Kharwar,19000,1,Y,syl,Sylheti,4,5,Hinduism,0.829,,21,A012,South Asian Peoples,475,A012,South Asia Tribal - other,2,4,"Asia, South",ASI,Asia,Y,Y,1,N,24.63921569,91.50290816
BG,Bangladesh,17195,112559,Kisan,Kisan,7000,1,Y,syl,Sylheti,4,5,Hinduism,1.372,,21,A012,South Asian Peoples,475,A012,South Asia Tribal - other,3,4,"Asia, South",ASI,Asia,Y,Y,1,N,25.08180847,91.54782014
BG,Bangladesh,20018,105069,Koch (Hindu traditions),Koch (Hindu traditions),34000,1,Y,kdq,Koch,3,5,Hinduism,0.621,,21,A012,South Asian Peoples,475,A012,South Asia Tribal - other,3,4,"Asia, South",ASI,Asia,Y,Y,1,N,25.78314,89.59793
BG,Bangladesh,17236,112604,Koiri (Hindu traditions),Koiri (Hindu traditions),7700,1,Y,ben,Bengali,5,5,Hinduism,0,0,21,A012,South Asian Peoples,442,A012,South Asia Hindu - other,3,4,"Asia, South",ASI,Asia,Y,Y,1,Y,25.82538238,89.09475692
BG,Bangladesh,17239,112607,Kol,Kol,3200,1,Y,ben,Bengali,5,5,Hinduism,0,0,21,A012,South Asian Peoples,475,A012,South Asia Tribal - other,2,4,"Asia, South",ASI,Asia,Y,Y,1,Y,25.07913192,89.40173433
BG,Bangladesh,17247,112615,Koli (Hindu traditions),Koli (Hindu traditions),1000,1,Y,ben,Bengali,5,5,Hinduism,0,0,21,A012,South Asian Peoples,412,A012,South Asia Dalit - other,4,4,"Asia, South",ASI,Asia,Y,Y,1,Y,24.23117047,90.53524178
BG,Bangladesh,12771,105163,Konai,Konai,6000,1,Y,ben,Bengali,5,5,Hinduism,0,0,21,A012,South Asian Peoples,412,A012,South Asia Dalit - other,2,4,"Asia, South",ASI,Asia,Y,Y,1,Y,24.346528,89.845198
BG,Bangladesh,17263,112632,Kori,Kori,12000,1,Y,ben,Bengali,5,5,Hinduism,0.103,,21,A012,South Asian Peoples,412,A012,South Asia Dalit - other,3,4,"Asia, South",ASI,Asia,Y,Y,1,N,24.66220559,89.62834443
BG,Bangladesh,17269,112639,Korku,Korku,6000,1,Y,syl,Sylheti,4,5,Hinduism,0,0,21,A012,South Asian Peoples,475,A012,South Asia Tribal - other,2,4,"Asia, South",ASI,Asia,Y,Y,1,Y,25.09072522,91.52854716
BG,Bangladesh,17273,112644,Korwa,Korwa,4000,1,Y,syl,Sylheti,4,5,Hinduism,0,0,21,A012,South Asian Peoples,442,A012,South Asia Hindu - other,2,4,"Asia, South",ASI,Asia,Y,Y,1,Y,24.93238039,92.28823589
BG,Bangladesh,19065,115211,Kui Khond,"Kui, Kuvi Khond",7900,1,Y,kxv,Kuvi,4,5,Hinduism,3.069,,21,A012,South Asian Peoples,475,A012,South Asia Tribal - other,2,4,"Asia, South",ASI,Asia,Y,Y,1,N,24.94157713,92.07465884
BG,Bangladesh,21767,118554,Kuki Chin Asho,Kuki Chin Asho,1700,1,Y,csh,"Chin, Asho",5,2,Buddhism,3.403,,23,A014,Tibetan-Himalayan Peoples,207,C0113,Kuki-Chin-Lushai,1,4,"Asia, South",ASI,Asia,Y,Y,1,N,22.8273,92.28593
BG,Bangladesh,17314,112694,Kuli,Kuli,600,1,Y,ben,Bengali,5,5,Hinduism,0,0,21,A012,South Asian Peoples,475,A012,South Asia Tribal - other,2,4,"Asia, South",ASI,Asia,Y,Y,1,Y,24.83401912,90.57973974
BG,Bangladesh,17316,112696,Kumhar (Hindu traditions),Kumhar (Hindu traditions),240000,1,Y,ben,Bengali,5,5,Hinduism,0,0,21,A012,South Asian Peoples,433,A012,South Asia Hindu - Kumhar,6,4,"Asia, South",ASI,Asia,Y,Y,5,Y,24.31597068,90.66914746
BG,Bangladesh,17334,112717,Kurmi (Hindu traditions),Kurmi (Hindu traditions),69000,1,Y,ben,Bengali,5,5,Hinduism,0,0,21,A012,South Asian Peoples,435,A012,South Asia Hindu - Kurmi,4,4,"Asia, South",ASI,Asia,Y,Y,1,Y,25.80559218,89.03962765
BG,Bangladesh,17343,112726,Kusiari,Kusiari,7200,1,Y,syl,Sylheti,4,5,Hinduism,0,0,21,A012,South Asian Peoples,442,A012,South Asia Hindu - other,2,4,"Asia, South",ASI,Asia,Y,Y,1,Y,25.05868452,92.05064055
BG,Bangladesh,17603,113034,Laheri (Muslim traditions),Laheri (Muslim traditions),7400,1,Y,ben,Bengali,5,6,Islam,0,0,21,A012,South Asian Peoples,462,A012,South Asia Muslim - other,2,4,"Asia, South",ASI,Asia,Y,Y,1,Y,24.773648,89.421247
BG,Bangladesh,17375,112768,Lohait Kuri,Lohait Kuri,2000,1,Y,syl,Sylheti,4,5,Hinduism,0,0,21,A012,South Asian Peoples,442,A012,South Asia Hindu - other,1,4,"Asia, South",ASI,Asia,Y,Y,1,Y,24.93158006,92.11892515
BG,Bangladesh,17379,112774,Lohar (Hindu traditions),Lohar (Hindu traditions),187000,1,Y,ben,Bengali,5,5,Hinduism,0,0,21,A012,South Asian Peoples,442,A012,South Asia Hindu - other,5,4,"Asia, South",ASI,Asia,Y,Y,4,Y,24.37413426,90.34981227
BG,Bangladesh,17609,113040,Lohar (Muslim traditions),Lohar (Muslim traditions),43000,1,Y,ben,Bengali,5,6,Islam,0,0,21,A012,South Asian Peoples,462,A012,South Asia Muslim - other,4,4,"Asia, South",ASI,Asia,Y,Y,1,Y,22.51436688,91.87085068
BG,Bangladesh,17381,112776,Lohara,Lohara,29000,1,Y,syl,Sylheti,4,5,Hinduism,0.659,,21,A012,South Asian Peoples,442,A012,South Asia Hindu - other,2,4,"Asia, South",ASI,Asia,Y,Y,1,N,24.93699558,91.50056568
BG,Bangladesh,17391,112789,Lunia (Hindu traditions),Lunia (Hindu traditions),38000,1,Y,ben,Bengali,5,5,Hinduism,0,0,21,A012,South Asian Peoples,442,A012,South Asia Hindu - other,3,4,"Asia, South",ASI,Asia,Y,Y,1,Y,25.87137542,89.074354
BG,Bangladesh,19483,115507,Madari (Muslim traditions),Madari (Muslim traditions),5200,1,Y,ben,Bengali,5,6,Islam,0,0,21,A012,South Asian Peoples,462,A012,South Asia Muslim - other,4,4,"Asia, South",ASI,Asia,Y,Y,1,Y,24.02593385,90.78953571
BG,Bangladesh,11698,102848,Magar,Magar,2400,1,Y,ben,Bengali,5,5,Hinduism,0,0,21,A012,South Asian Peoples,442,A012,South Asia Hindu - other,4,4,"Asia, South",ASI,Asia,Y,Y,1,Y,24.20223735,90.53526013
BG,Bangladesh,17408,112808,Mahanta,Mahanta,1800,1,Y,ben,Bengali,5,5,Hinduism,0,0,21,A012,South Asian Peoples,442,A012,South Asia Hindu - other,2,4,"Asia, South",ASI,Asia,Y,Y,1,Y,23.575444,90.955152
BG,Bangladesh,17401,112801,Mahara,Mahara,16000,1,Y,syl,Sylheti,4,5,Hinduism,0,0,21,A012,South Asian Peoples,442,A012,South Asia Hindu - other,2,4,"Asia, South",ASI,Asia,Y,Y,1,Y,24.94651248,92.32667527
BG,Bangladesh,17411,112811,Mahishya,Mahishya,722000,1,Y,ben,Bengali,5,5,Hinduism,0.953,,21,A012,South Asian Peoples,438,A012,South Asia Hindu - Mahishya,4,4,"Asia, South",ASI,Asia,Y,Y,14,N,24.785417,88.553967
BG,Bangladesh,13218,106041,Mahli,Mahli,42000,1,Y,mjx,Mahali,3,5,Hinduism,1.427,,21,A012,South Asian Peoples,442,A012,South Asia Hindu - other,2,4,"Asia, South",ASI,Asia,Y,Y,1,N,25.86385331,88.91650487
BG,Bangladesh,22103,112814,Maimal,Maimal,148000,1,Y,syl,Sylheti,4,6,Islam,0,0,21,A012,South Asian Peoples,462,A012,South Asia Muslim - other,2,4,"Asia, South",ASI,Asia,Y,Y,3,Y,24.9092,92.0259
BG,Bangladesh,17417,112818,Majhwar,Majhwar,18000,1,Y,ben,Bengali,5,5,Hinduism,0,0,21,A012,South Asian Peoples,442,A012,South Asia Hindu - other,2,4,"Asia, South",ASI,Asia,Y,Y,1,Y,24.77029981,90.68163795
BG,Bangladesh,17424,112825,Mal (Hindu traditions),Mal (Hindu traditions),22000,1,Y,ben,Bengali,5,5,Hinduism,0,0,21,A012,South Asian Peoples,442,A012,South Asia Hindu - other,3,4,"Asia, South",ASI,Asia,Y,Y,1,Y,23.52436746,91.16203538
BG,Bangladesh,17614,113046,Mal (Muslim traditions),Mal (Muslim traditions),8000,1,Y,ben,Bengali,5,6,Islam,0,0,21,A012,South Asian Peoples,462,A012,South Asia Muslim - other,2,4,"Asia, South",ASI,Asia,Y,Y,1,Y,23.96349261,90.61304689
BG,Bangladesh,18786,114473,Mali (Hindu traditions),Mali (Hindu traditions),173000,1,Y,syl,Sylheti,4,5,Hinduism,0,0,21,A012,South Asian Peoples,440,A012,South Asia Hindu - Mali,4,4,"Asia, South",ASI,Asia,Y,Y,3,Y,24.781764,92.020921
BG,Bangladesh,17432,112835,Mallah (Hindu traditions),Mallah (Hindu traditions),17000,1,Y,ben,Bengali,5,5,Hinduism,0,0,21,A012,South Asian Peoples,442,A012,South Asia Hindu - other,3,4,"Asia, South",ASI,Asia,Y,Y,1,Y,24.37281956,90.27730455
BG,Bangladesh,17624,113059,Mallah (Muslim traditions),Mallah (Muslim traditions),16000,1,Y,ben,Bengali,5,6,Islam,0,0,21,A012,South Asian Peoples,462,A012,South Asia Muslim - other,3,4,"Asia, South",ASI,Asia,Y,Y,1,Y,25.68659286,88.83228154
BG,Bangladesh,21343,118169,Mallah Chain (Hindu traditions),Mallah Chain (Hindu traditions),1600,1,Y,ben,Bengali,5,5,Hinduism,0,0,21,A012,South Asian Peoples,442,A012,South Asia Hindu - other,3,4,"Asia, South",ASI,Asia,Y,Y,1,Y,24.70288,90.452
BG,Bangladesh,21345,118171,Mallah Dhawa (Muslim traditions),Mallah Dhawa (Muslim traditions),18000,1,Y,ben,Bengali,5,6,Islam,0,0,21,A012,South Asian Peoples,462,A012,South Asia Muslim - other,2,4,"Asia, South",ASI,Asia,Y,Y,1,Y,24.82231,89.381
BG,Bangladesh,21346,118172,Mallah Kewat (Hindu traditions),Mallah Kewat (Hindu traditions),1600,1,Y,ben,Bengali,5,5,Hinduism,0,0,21,A012,South Asian Peoples,442,A012,South Asia Hindu - other,3,4,"Asia, South",ASI,Asia,Y,Y,1,Y,24.70288,90.452
BG,Bangladesh,21347,118173,Mallah Kewat (Muslim traditions),Mallah Kewat (Muslim traditions),200,1,Y,ben,Bengali,5,6,Islam,0,0,21,A012,South Asian Peoples,462,A012,South Asia Muslim - other,2,4,"Asia, South",ASI,Asia,Y,Y,1,Y,24.82231,89.38189
BG,Bangladesh,17428,112830,Mallik (Muslim traditions),Mallik (Muslim traditions),63000,1,Y,ben,Bengali,5,6,Islam,0,0,21,A012,South Asian Peoples,462,A012,South Asia Muslim - other,3,4,"Asia, South",ASI,Asia,Y,Y,1,Y,22.91885313,89.74067236
BG,Bangladesh,17434,112837,Malto,Malto,35000,1,Y,ben,Bengali,5,5,Hinduism,3.717,,21,A012,South Asian Peoples,475,A012,South Asia Tribal - other,2,4,"Asia, South",ASI,Asia,Y,Y,1,N,25.15527568,88.75692325
BG,Bangladesh,16940,112243,Mandala (Hindu traditions),Mandala (Hindu traditions),6700,1,Y,ben,Bengali,5,5,Hinduism,0,0,21,A012,South Asian Peoples,442,A012,South Asia Hindu - other,2,4,"Asia, South",ASI,Asia,Y,Y,1,Y,22.61864078,89.73852689
BG,Bangladesh,17633,113069,Mandala (Muslim traditions),Mandala (Muslim traditions),117000,1,Y,ben,Bengali,5,6,Islam,0,0,21,A012,South Asian Peoples,462,A012,South Asia Muslim - other,2,4,"Asia, South",ASI,Asia,Y,Y,2,Y,22.73586484,89.87732712
BG,Bangladesh,17460,112868,Masalchi,Masalchi,5800,1,Y,ben,Bengali,5,6,Islam,0,0,21,A012,South Asian Peoples,462,A012,South Asia Muslim - other,1,4,"Asia, South",ASI,Asia,Y,Y,1,Y,23.74905853,90.040132
BG,Bangladesh,17466,112874,Matia,Matia,27000,1,Y,ben,Bengali,5,5,Hinduism,0,0,21,A012,South Asian Peoples,442,A012,South Asia Hindu - other,2,4,"Asia, South",ASI,Asia,Y,Y,1,Y,24.60221526,89.87247583
BG,Bangladesh,17526,112946,Mech,Mech,1000,1,Y,ben,Bengali,5,5,Hinduism,0,0,21,A012,South Asian Peoples,475,A012,South Asia Tribal - other,4,4,"Asia, South",ASI,Asia,Y,Y,1,Y,25.02161909,89.02376542
BG,Bangladesh,13513,106268,Meitei,Meitei,29000,1,Y,mni,Meitei,5,5,Hinduism,0.166,,21,A012,South Asian Peoples,442,A012,South Asia Hindu - other,3,4,"Asia, South",ASI,Asia,Y,Y,1,N,24.54883647,91.96653724
BG,Bangladesh,17561,112987,Mir,Mir,49000,1,Y,ben,Bengali,5,6,Islam,0,0,21,A012,South Asian Peoples,462,A012,South Asia Muslim - other,2,4,"Asia, South",ASI,Asia,Y,Y,1,Y,25.17785003,88.83344138
BG,Bangladesh,17621,113056,Mirdhas (Muslim traditions),Mirdhas (Muslim traditions),1100,1,Y,ben,Bengali,5,6,Islam,0,0,21,A012,South Asian Peoples,462,A012,South Asia Muslim - other,1,4,"Asia, South",ASI,Asia,Y,Y,1,Y,25.66562668,89.09401138
BG,Bangladesh,17564,112990,Mirzakhani,Mirzakhani,13000,1,Y,ben,Bengali,5,6,Islam,0,0,21,A012,South Asian Peoples,462,A012,South Asia Muslim - other,2,4,"Asia, South",ASI,Asia,Y,Y,1,Y,24.77819,88.933471
BG,Bangladesh,17566,112992,Mishri,Mishri,3400,1,Y,ben,Bengali,5,5,Hinduism,0,0,21,A012,South Asian Peoples,442,A012,South Asia Hindu - other,2,4,"Asia, South",ASI,Asia,Y,Y,1,Y,24.9679202,90.7082196
BG,Bangladesh,17639,113075,Mochi (Hindu traditions),Mochi (Hindu traditions),233000,1,Y,ben,Bengali,5,5,Hinduism,0,0,21,A012,South Asian Peoples,442,A012,South Asia Hindu - other,4,4,"Asia, South",ASI,Asia,Y,Y,5,Y,25.69818194,89.41621008
BG,Bangladesh,17625,113060,Mochi (Muslim traditions),Mochi (Muslim traditions),12000,1,Y,ben,Bengali,5,6,Islam,0,0,21,A012,South Asian Peoples,462,A012,South Asia Muslim - other,3,4,"Asia, South",ASI,Asia,Y,Y,1,Y,23.37861538,89.3090014
BG,Bangladesh,13761,106706,Moghal,Moghal,44000,1,Y,ben,Bengali,5,6,Islam,0,0,21,A012,South Asian Peoples,462,A012,South Asia Muslim - other,6,4,"Asia, South",ASI,Asia,Y,Y,1,Y,24.25929979,90.96489472
BG,Bangladesh,13849,106847,Mru,Mru,70000,1,Y,mro,Mru,4,2,Buddhism,3.935,,21,A012,South Asian Peoples,475,A012,South Asia Tribal - other,3,4,"Asia, South",ASI,Asia,Y,Y,1,N,21.838769,92.29919
BG,Bangladesh,13867,106893,Munda,Munda,53000,1,Y,unr,Mundari,5,5,Hinduism,4.565,,21,A012,South Asian Peoples,475,A012,South Asia Tribal - other,5,4,"Asia, South",ASI,Asia,Y,Y,1,N,26.14939616,88.60315123
BG,Bangladesh,17709,113158,Murasing,Murasing,2200,1,Y,aml,War-Jaintia,2,5,Hinduism,0,0,21,A012,South Asian Peoples,475,A012,South Asia Tribal - other,2,4,"Asia, South",ASI,Asia,Y,Y,1,Y,23.17174,91.964
BG,Bangladesh,17711,113160,Musahar (Hindu traditions),Musahar (Hindu traditions),15000,1,Y,ben,Bengali,5,5,Hinduism,0,0,21,A012,South Asian Peoples,412,A012,South Asia Dalit - other,3,4,"Asia, South",ASI,Asia,Y,Y,1,Y,25.6495912,88.88859188
BG,Bangladesh,17741,113199,Nagarchi (Hindu traditions),Nagarchi (Hindu traditions),18000,1,Y,ben,Bengali,5,5,Hinduism,0,0,21,A012,South Asian Peoples,475,A012,South Asia Tribal - other,2,4,"Asia, South",ASI,Asia,Y,Y,1,Y,23.89895133,90.57007908
BG,Bangladesh,17629,113065,Nagarchi (Muslim traditions),Nagarchi (Muslim traditions),17000,1,Y,ben,Bengali,5,6,Islam,0,0,21,A012,South Asian Peoples,462,A012,South Asia Muslim - other,2,4,"Asia, South",ASI,Asia,Y,Y,1,Y,23.03022704,89.80256355
BG,Bangladesh,17745,113203,Nai (Hindu traditions),Nai (Hindu traditions),29000,1,Y,ben,Bengali,5,5,Hinduism,0,0,21,A012,South Asian Peoples,441,A012,South Asia Hindu - Nai,4,4,"Asia, South",ASI,Asia,Y,Y,1,Y,22.92713033,89.83129411
BG,Bangladesh,21210,118031,Nai Nabasakh,Nai Nabasakh,6500,1,Y,ben,Bengali,5,5,Hinduism,0,0,21,A012,South Asian Peoples,441,A012,South Asia Hindu - Nai,2,4,"Asia, South",ASI,Asia,Y,Y,1,Y,22.43382625,89.49181245
BG,Bangladesh,17752,113211,Nalband,Nalband,300,1,Y,ben,Bengali,5,6,Islam,0,0,21,A012,South Asian Peoples,462,A012,South Asia Muslim - other,2,4,"Asia, South",ASI,Asia,Y,Y,1,Y,24.31715858,90.55651251
BG,Bangladesh,17753,113212,Naliya (Muslim traditions),Naliya (Muslim traditions),1900,1,Y,ben,Bengali,5,6,Islam,0,0,21,A012,South Asian Peoples,462,A012,South Asia Muslim - other,2,4,"Asia, South",ASI,Asia,Y,Y,1,Y,23.45881,89.83835
BG,Bangladesh,17756,113215,Namassej (Hindu traditions),Namassej (Hindu traditions),625000,1,Y,ben,Bengali,5,5,Hinduism,0.542,,21,A012,South Asian Peoples,411,A012,South Asia Dalit - Namassej,5,4,"Asia, South",ASI,Asia,Y,Y,12,N,24.21266863,90.92458312
BG,Bangladesh,17630,113066,Namassej (Muslim traditions),Namassej (Muslim traditions),2200,1,Y,ben,Bengali,5,6,Islam,0,0,21,A012,South Asian Peoples,462,A012,South Asia Muslim - other,2,4,"Asia, South",ASI,Asia,Y,Y,1,Y,22.78307945,89.93133263
BG,Bangladesh,21212,118033,Namassej Chandel,Namassej Chandel,2105000,1,Y,ben,Bengali,5,5,Hinduism,0.59,,21,A012,South Asian Peoples,411,A012,South Asia Dalit - Namassej,2,4,"Asia, South",ASI,Asia,Y,Y,42,N,23.80230848,90.27163344
BG,Bangladesh,17763,113224,Nat (Hindu traditions),Nat (Hindu traditions),15000,1,Y,ben,Bengali,5,5,Hinduism,0.329,,21,A012,South Asian Peoples,412,A012,South Asia Dalit - other,3,4,"Asia, South",ASI,Asia,Y,Y,1,N,22.63824295,92.09690132
BG,Bangladesh,17631,113067,Nat (Muslim traditions),Nat (Muslim traditions),5400,1,Y,ben,Bengali,5,6,Islam,0,0,21,A012,South Asian Peoples,462,A012,South Asia Muslim - other,4,4,"Asia, South",ASI,Asia,Y,Y,1,Y,22.65822698,92.36689225
BG,Bangladesh,13322,107217,Newah,Newah,1000,1,Y,npi,Nepali,5,5,Hinduism,3.964,,21,A012,South Asian Peoples,442,A012,South Asia Hindu - other,4,4,"Asia, South",ASI,Asia,Y,Y,1,N,24.14781711,90.72304809
BG,Bangladesh,17781,113245,Nikari (Muslim traditions),Nikari (Muslim traditions),82000,1,Y,ben,Bengali,5,6,Islam,0,0,21,A012,South Asian Peoples,462,A012,South Asia Muslim - other,2,4,"Asia, South",ASI,Asia,Y,Y,2,Y,22.88174304,89.61571451
BG,Bangladesh,17821,113294,Paliya,Paliya,101000,1,Y,ben,Bengali,5,5,Hinduism,0,0,21,A012,South Asian Peoples,412,A012,South Asia Dalit - other,2,4,"Asia, South",ASI,Asia,Y,Y,2,Y,26.30435907,89.0696124
BG,Bangladesh,17840,113314,Pan,Pan,4200,1,Y,ben,Bengali,5,5,Hinduism,0,0,21,A012,South Asian Peoples,412,A012,South Asia Dalit - other,2,4,"Asia, South",ASI,Asia,Y,Y,1,Y,24.73931052,90.55478101
BG,Bangladesh,14300,107850,Pankhu,"Pankhu, Panko",5600,1,Y,pkh,Pangkhua,2,2,Buddhism,3.305,,21,A012,South Asian Peoples,402,A012,South Asia Buddhist,1,4,"Asia, South",ASI,Asia,Y,Y,1,N,22.453974,92.41449
BG,Bangladesh,17850,113324,Parhaiya,Parhaiya,6300,1,Y,syl,Sylheti,4,5,Hinduism,1.76,,21,A012,South Asian Peoples,475,A012,South Asia Tribal - other,2,4,"Asia, South",ASI,Asia,Y,Y,1,N,24.942671,91.624894
BG,Bangladesh,14322,107901,Parsee,Parsee,700,1,Y,prp,Parsi,2,8,Other / Small,0,0,14,A005,Persian-Median,268,C0179,Persian,11,4,"Asia, South",ASI,Asia,Y,N,1,Y,24.3442707,90.63430121
BG,Bangladesh,22194,119212,Pashtun Khan,Pashtun Khan,24000,1,Y,ben,Bengali,5,6,Islam,0,0,21,A012,South Asian Peoples,463,A012,South Asia Muslim - Pashtun,2,4,"Asia, South",ASI,Asia,Y,Y,1,Y,24.10466,90.46408
BG,Bangladesh,22212,119230,Pashtun Lodhi (Dalazak),Pashtun Lodhi (Dalazak),1300,1,Y,ben,Bengali,5,6,Islam,0,0,21,A012,South Asian Peoples,463,A012,South Asia Muslim - Pashtun,3,4,"Asia, South",ASI,Asia,Y,Y,1,Y,23.79566,90.26357
BG,Bangladesh,21537,116298,"Pashtun, Pathan","Pashtun, Pathan",138000,1,Y,ben,Bengali,5,6,Islam,0,0,21,A012,South Asian Peoples,463,A012,South Asia Muslim - Pashtun,4,4,"Asia, South",ASI,Asia,Y,Y,3,Y,24.26144489,90.73474859
BG,Bangladesh,17852,113327,Pasi (Hindu traditions),Pasi (Hindu traditions),6500,1,Y,ben,Bengali,5,5,Hinduism,0,0,21,A012,South Asian Peoples,413,A012,South Asia Dalit - Pasi,3,4,"Asia, South",ASI,Asia,Y,Y,1,Y,24.01488556,90.80644984
BG,Bangladesh,17659,113099,Pasi (Muslim traditions),Pasi (Muslim traditions),2700,1,Y,ben,Bengali,5,6,Islam,0,0,21,A012,South Asian Peoples,413,A012,South Asia Dalit - Pasi,2,4,"Asia, South",ASI,Asia,Y,Y,1,Y,23.05879473,92.17505672
BG,Bangladesh,17853,113329,Patial,Patial,8100,1,Y,ben,Bengali,5,5,Hinduism,0,0,21,A012,South Asian Peoples,412,A012,South Asia Dalit - other,2,4,"Asia, South",ASI,Asia,Y,Y,1,Y,23.98297244,90.60942015
BG,Bangladesh,17856,113332,Patni (Hindu traditions),Patni (Hindu traditions),138000,1,Y,syl,Sylheti,4,5,Hinduism,0,0,21,A012,South Asian Peoples,412,A012,South Asia Dalit - other,2,4,"Asia, South",ASI,Asia,Y,Y,3,Y,24.92958106,92.1588153
BG,Bangladesh,17660,113100,Patni (Muslim traditions),Patni (Muslim traditions),9500,1,Y,ben,Bengali,5,6,Islam,0,0,21,A012,South Asian Peoples,462,A012,South Asia Muslim - other,1,4,"Asia, South",ASI,Asia,Y,Y,1,Y,22.60536821,89.72330838
BG,Bangladesh,17662,113102,Patwa (Muslim traditions),Patwa (Muslim traditions),13000,1,Y,ben,Bengali,5,6,Islam,0,0,21,A012,South Asian Peoples,462,A012,South Asia Muslim - other,3,4,"Asia, South",ASI,Asia,Y,Y,1,Y,22.85608226,90.53571574
BG,Bangladesh,14371,107987,Persian,Persian,800,1,Y,prs,Dari,5,6,Islam,0,0,14,A005,Persian-Median,268,C0179,Persian,43,4,"Asia, South",ASI,Asia,Y,N,1,Y,24.00127497,90.63761495
BG,Bangladesh,17868,113344,Peshakar,Peshakar,1300,1,Y,ben,Bengali,5,6,Islam,0,0,21,A012,South Asian Peoples,462,A012,South Asia Muslim - other,2,4,"Asia, South",ASI,Asia,Y,Y,1,Y,23.44153,91.04025
BG,Bangladesh,17877,113353,Pinjara,Pinjara,51000,1,Y,ben,Bengali,5,6,Islam,0,0,21,A012,South Asian Peoples,462,A012,South Asia Muslim - other,4,4,"Asia, South",ASI,Asia,Y,Y,1,Y,22.62201407,92.33619643
BG,Bangladesh,17896,113376,Pod,Pod,30000,1,Y,ben,Bengali,5,5,Hinduism,0,0,21,A012,South Asian Peoples,412,A012,South Asia Dalit - other,2,4,"Asia, South",ASI,Asia,Y,Y,1,Y,23.26122532,89.43234664
BG,Bangladesh,17912,113393,Pundari,Pundari,9400,1,Y,ben,Bengali,5,5,Hinduism,0,0,21,A012,South Asian Peoples,442,A012,South Asia Hindu - other,2,4,"Asia, South",ASI,Asia,Y,Y,1,Y,24.97346291,88.82552914
BG,Bangladesh,17919,113401,Qassab,Qassab,32000,1,Y,ben,Bengali,5,6,Islam,0,0,21,A012,South Asian Peoples,462,A012,South Asia Muslim - other,4,4,"Asia, South",ASI,Asia,Y,Y,1,Y,24.62079071,90.1025729
BG,Bangladesh,17125,112472,Qazi,Qazi,27000,1,Y,ben,Bengali,5,6,Islam,0,0,21,A012,South Asian Peoples,462,A012,South Asia Muslim - other,3,4,"Asia, South",ASI,Asia,Y,Y,1,Y,22.99522581,89.92560224
BG,Bangladesh,17925,113409,Rai,Rai,1200,1,Y,ben,Bengali,5,8,Other / Small,4.207,,21,A012,South Asian Peoples,468,A012,South Asia - other,4,4,"Asia, South",ASI,Asia,Y,Y,1,N,23.86943275,90.81496604
BG,Bangladesh,14513,108268,Rajbansi (Hindu traditions),Rajbansi (Hindu traditions),1555000,1,Y,ben,Bengali,5,5,Hinduism,0.638,,21,A012,South Asian Peoples,414,A012,South Asia Dalit - Rajbansi,4,4,"Asia, South",ASI,Asia,Y,Y,31,N,25.86581949,88.89508559
BG,Bangladesh,17668,113110,Rajbansi (Muslim traditions),Rajbansi (Muslim traditions),9500,1,Y,ben,Bengali,5,6,Islam,0,0,21,A012,South Asian Peoples,462,A012,South Asia Muslim - other,2,4,"Asia, South",ASI,Asia,Y,Y,1,Y,26.39220325,88.94220281
BG,Bangladesh,17930,113416,Rajbhar,Rajbhar,3400,1,Y,ben,Bengali,5,5,Hinduism,0,0,21,A012,South Asian Peoples,442,A012,South Asia Hindu - other,3,4,"Asia, South",ASI,Asia,Y,Y,1,Y,24.9776461,90.58109079
BG,Bangladesh,17928,113412,Rajput (Hindu traditions),Rajput (Hindu traditions),32000,1,Y,ben,Bengali,5,5,Hinduism,0.017,,21,A012,South Asian Peoples,420,A012,South Asia Forward Caste - Rajput,6,4,"Asia, South",ASI,Asia,Y,Y,1,Y,25.92396094,88.85007508
BG,Bangladesh,17667,113109,Rajput (Muslim traditions),Rajput (Muslim traditions),28000,1,Y,ben,Bengali,5,6,Islam,0,0,21,A012,South Asian Peoples,464,A012,South Asia Muslim - Rajput,5,4,"Asia, South",ASI,Asia,Y,Y,1,Y,22.44078223,89.49467299
BG,Bangladesh,18159,113671,Rajput (Sikh traditions),Rajput (Sikh traditions),900,1,Y,ben,Bengali,5,8,Other / Small,0,0,21,A012,South Asian Peoples,470,A012,South Asia Sikh - other,2,4,"Asia, South",ASI,Asia,Y,Y,1,Y,24.07074618,90.44833087
BG,Bangladesh,17934,113422,Rajwar,Rajwar,10000,1,Y,ben,Bengali,5,5,Hinduism,0,0,21,A012,South Asian Peoples,412,A012,South Asia Dalit - other,2,4,"Asia, South",ASI,Asia,Y,Y,1,Y,25.118748,88.661609
BG,Bangladesh,13207,106013,Rakhine,Rakhine,19000,1,Y,rki,Rakhine,3,2,Buddhism,0,0,23,A014,Tibetan-Himalayan Peoples,154,C0058,Burmese,2,4,"Asia, South",ASI,Asia,Y,Y,1,Y,21.49335,92.07641
BG,Bangladesh,17972,113461,Rangrez (Muslim traditions),Rangrez (Muslim traditions),10000,1,Y,ben,Bengali,5,6,Islam,0,0,21,A012,South Asian Peoples,462,A012,South Asia Muslim - other,3,4,"Asia, South",ASI,Asia,Y,Y,1,Y,22.82832825,89.63310967
BG,Bangladesh,17945,113433,Rasua,Rasua,1200,1,Y,ben,Bengali,5,6,Islam,0,0,21,A012,South Asian Peoples,462,A012,South Asia Muslim - other,2,4,"Asia, South",ASI,Asia,Y,Y,1,Y,22.35544,89.74316
BG,Bangladesh,14526,108317,Raute,Raute,1500,1,Y,ben,Bengali,5,5,Hinduism,0,0,21,A012,South Asian Peoples,442,A012,South Asia Hindu - other,2,4,"Asia, South",ASI,Asia,Y,Y,1,Y,23.90303259,90.53719959
BG,Bangladesh,17949,113438,Rautia,Rautia,1200,1,Y,sdr,"Sadri, Oraon",4,5,Hinduism,0,0,21,A012,South Asian Peoples,442,A012,South Asia Hindu - other,2,4,"Asia, South",ASI,Asia,Y,Y,1,Y,24.833544,91.953665
BG,Bangladesh,16933,112235,Rayeen (Hindu traditions),Rayeen (Hindu traditions),7200,1,Y,ben,Bengali,5,5,Hinduism,0,0,21,A012,South Asian Peoples,442,A012,South Asia Hindu - other,2,4,"Asia, South",ASI,Asia,Y,Y,1,Y,25.6485656,88.81012748
BG,Bangladesh,17328,112710,Rayeen (Muslim traditions),Rayeen (Muslim traditions),97000,1,Y,ben,Bengali,5,6,Islam,0,0,21,A012,South Asian Peoples,462,A012,South Asia Muslim - other,4,4,"Asia, South",ASI,Asia,Y,Y,2,Y,25.05642646,88.78376412
BG,Bangladesh,11359,102170,Rohingya,Rohingya,871000,1,Y,rhg,Rohingya,3,6,Islam,0,0,21,A012,South Asian Peoples,462,A012,South Asia Muslim - other,8,4,"Asia, South",ASI,Asia,Y,N,17,Y,22.374082,91.811002
BG,Bangladesh,20630,116909,Rohingya Zerbadi,Rohingya Zerbadi,80000,1,Y,rhg,Rohingya,3,6,Islam,0,0,21,A012,South Asian Peoples,462,A012,South Asia Muslim - other,1,4,"Asia, South",ASI,Asia,Y,Y,2,Y,22.329679,91.804663
BG,Bangladesh,17997,113489,Sahariya,Sahariya,7200,1,Y,ben,Bengali,5,5,Hinduism,0,0,21,A012,South Asian Peoples,475,A012,South Asia Tribal - other,2,4,"Asia, South",ASI,Asia,Y,Y,1,Y,23.060805,92.061588
BG,Bangladesh,18018,113512,Sankara,Sankara,12000,1,Y,ben,Bengali,5,5,Hinduism,0,0,21,A012,South Asian Peoples,442,A012,South Asia Hindu - other,2,4,"Asia, South",ASI,Asia,Y,Y,1,Y,24.39822955,90.44062943
BG,Bangladesh,18023,113518,Saora,Saora,2600,1,Y,srb,Sora,5,5,Hinduism,0.228,,21,A012,South Asian Peoples,475,A012,South Asia Tribal - other,3,4,"Asia, South",ASI,Asia,Y,Y,1,N,25.141547,91.30437
BG,Bangladesh,18029,113524,Sardar (Muslim traditions),Sardar (Muslim traditions),88000,1,Y,ben,Bengali,5,6,Islam,0,0,21,A012,South Asian Peoples,462,A012,South Asia Muslim - other,2,4,"Asia, South",ASI,Asia,Y,Y,2,Y,22.68117291,91.87898411
BG,Bangladesh,18044,113539,Sauria Paharia,Sauria Paharia,8000,1,Y,syl,Sylheti,4,5,Hinduism,3.33,,21,A012,South Asian Peoples,475,A012,South Asia Tribal - other,2,4,"Asia, South",ASI,Asia,Y,Y,1,N,25.17682712,92.04764233
BG,Bangladesh,18045,113540,Sayyid,Sayyid,1790000,1,Y,ben,Bengali,5,6,Islam,0,0,21,A012,South Asian Peoples,465,A012,South Asia Muslim - Sayyid,5,4,"Asia, South",ASI,Asia,Y,Y,36,Y,22.56397,92.379934
BG,Bangladesh,18084,113585,Shaikh,Shaikh,130310000,1,Y,ben,Bengali,5,6,Islam,0,0,21,A012,South Asian Peoples,466,A012,South Asia Muslim - Shaikh,9,4,"Asia, South",ASI,Asia,Y,Y,2606,Y,24.01120538,90.80655245
BG,Bangladesh,21815,118602,Shaikh Siddiqi,Shaikh Siddiqi,8000,1,Y,ben,Bengali,5,6,Islam,0,0,21,A012,South Asian Peoples,466,A012,South Asia Muslim - Shaikh,3,4,"Asia, South",ASI,Asia,Y,Y,1,Y,23.79566,90.26357
BG,Bangladesh,18082,113583,Shanan,Shanan,27000,1,Y,ben,Bengali,5,6,Islam,0,0,21,A012,South Asian Peoples,462,A012,South Asia Muslim - other,1,4,"Asia, South",ASI,Asia,Y,Y,1,Y,22.69301004,89.78132994
BG,Bangladesh,18102,113605,Sikligar (Muslim traditions),Sikligar (Muslim traditions),8800,1,Y,ben,Bengali,5,6,Islam,0,0,21,A012,South Asian Peoples,462,A012,South Asia Muslim - other,3,4,"Asia, South",ASI,Asia,Y,Y,1,Y,25.27937444,89.3164197
BG,Bangladesh,18140,113647,Sindhi (Muslim traditions),Sindhi (Muslim traditions),1200,1,Y,snd,Sindhi,5,6,Islam,0,0,21,A012,South Asian Peoples,462,A012,South Asia Muslim - other,4,4,"Asia, South",ASI,Asia,Y,Y,1,Y,24.14630185,90.55848586
BG,Bangladesh,18150,113659,Sonar (Hindu traditions),Sonar (Hindu traditions),16000,1,Y,ben,Bengali,5,5,Hinduism,0,0,21,A012,South Asian Peoples,443,A012,South Asia Hindu - Sonar,5,4,"Asia, South",ASI,Asia,Y,Y,1,Y,22.762175,91.947434
BG,Bangladesh,18190,113705,Sunri (Hindu traditions),Sunri (Hindu traditions),350000,1,Y,ben,Bengali,5,5,Hinduism,0,0,21,A012,South Asian Peoples,442,A012,South Asia Hindu - other,3,4,"Asia, South",ASI,Asia,Y,Y,7,Y,25.05728503,89.56460721
BG,Bangladesh,21257,118080,Sunri Sadhubanik,Sunri Sadhubanik,245000,1,Y,ben,Bengali,5,5,Hinduism,0,0,21,A012,South Asian Peoples,442,A012,South Asia Hindu - other,2,4,"Asia, South",ASI,Asia,Y,Y,5,Y,23.44438593,91.07622997
BG,Bangladesh,18194,113709,Sutradhar (Hindu traditions),Sutradhar (Hindu traditions),184000,1,Y,ben,Bengali,5,5,Hinduism,0,0,21,A012,South Asian Peoples,442,A012,South Asia Hindu - other,3,4,"Asia, South",ASI,Asia,Y,Y,4,Y,24.325916,89.68912
BG,Bangladesh,17686,113131,Sutradhar (Muslim traditions),Sutradhar (Muslim traditions),14000,1,Y,ben,Bengali,5,6,Islam,0,0,21,A012,South Asian Peoples,462,A012,South Asia Muslim - other,2,4,"Asia, South",ASI,Asia,Y,Y,1,Y,22.55331492,92.13248804
BG,Bangladesh,22311,109660,Sylhet (Muslim traditions),Sylhet (Muslim traditions),11988000,1,Y,syl,Sylheti,4,6,Islam,0,0,21,A012,South Asian Peoples,462,A012,South Asia Muslim - other,1,4,"Asia, South",ASI,Asia,Y,Y,240,Y,24.9092,92.0259
BG,Bangladesh,18212,102861,Tamang,Tamang,700,1,Y,taj,"Tamang, Eastern",4,2,Buddhism,2.292,,21,A012,South Asian Peoples,402,A012,South Asia Buddhist,4,4,"Asia, South",ASI,Asia,Y,Y,1,N,24.95415658,89.42445318
BG,Bangladesh,18210,113730,Tamboli (Hindu traditions),Tamboli (Hindu traditions),191000,1,Y,ben,Bengali,5,5,Hinduism,0,0,21,A012,South Asian Peoples,442,A012,South Asia Hindu - other,4,4,"Asia, South",ASI,Asia,Y,Y,4,Y,24.3047534,90.46234844
BG,Bangladesh,17688,113133,Tamboli (Muslim traditions),Tamboli (Muslim traditions),128000,1,Y,ben,Bengali,5,6,Islam,0,0,21,A012,South Asian Peoples,462,A012,South Asia Muslim - other,3,4,"Asia, South",ASI,Asia,Y,Y,3,Y,22.97449051,90.42510464
BG,Bangladesh,18217,113743,Tanti (Hindu traditions),Tanti (Hindu traditions),110000,1,Y,ben,Bengali,5,5,Hinduism,0,0,21,A012,South Asian Peoples,442,A012,South Asia Hindu - other,4,4,"Asia, South",ASI,Asia,Y,Y,2,Y,23.9902365,90.63815931
BG,Bangladesh,17689,113134,Tanti (Muslim traditions),Tanti (Muslim traditions),1600,1,Y,ben,Bengali,5,6,Islam,0,0,21,A012,South Asian Peoples,462,A012,South Asia Muslim - other,2,4,"Asia, South",ASI,Asia,Y,Y,1,Y,22.98117883,90.35310373
BG,Bangladesh,18218,113744,Tarafdar,Tarafdar,5200,1,Y,ben,Bengali,5,6,Islam,0,0,21,A012,South Asian Peoples,462,A012,South Asia Muslim - other,1,4,"Asia, South",ASI,Asia,Y,Y,1,Y,23.10617736,89.70436608
BG,Bangladesh,18229,113757,Teli (Hindu traditions),Teli (Hindu traditions),153000,1,Y,ben,Bengali,5,5,Hinduism,0,0,21,A012,South Asian Peoples,446,A012,South Asia Hindu - Teli,5,4,"Asia, South",ASI,Asia,Y,Y,3,Y,24.01138696,90.56141558
BG,Bangladesh,21259,118081,Teli Gangauta (Hindu traditions),Teli Gangauta (Hindu traditions),2900,1,Y,ben,Bengali,5,5,Hinduism,0,0,21,A012,South Asian Peoples,446,A012,South Asia Hindu - Teli,3,4,"Asia, South",ASI,Asia,Y,Y,1,Y,24.83260122,89.41926979
BG,Bangladesh,18254,113787,Tili,Tili,73000,1,Y,ben,Bengali,5,5,Hinduism,0,0,21,A012,South Asian Peoples,442,A012,South Asia Hindu - other,2,4,"Asia, South",ASI,Asia,Y,Y,1,Y,24.52580021,89.88400921
